point,province,city,country,village,area,slice,slices,eastLongitude,northLatitude
11D10,河北,保定,涞水,涞水,冀鲁官话,保唐片,定霸小片,115.39166666666667,39.61666666666667
11D11,河北,张家口,涿鹿,涿鹿镇,晋语,张呼片,系属不明,115.21666666666667,40.15833333333333
11D07,河北,张家口,蔚县,蔚州镇,冀鲁官话,保唐片,涞阜小片,114.64166666666667,39.86666666666667
11D03,河北,衡水,桃城,河西,冀鲁官话区,石济片,邢衡小片,115.65,37.708333333333336
11D09,河北,石家庄,赞皇,赞皇镇,晋语,张呼片,系属不明,114.275,37.599999999999994
11D08,河北,邢台,桥东,北大街,冀鲁官话,石济片,邢衡小片,114.25,37.02
11D02,河北,保定,阜平,阜平,冀鲁官话,保唐片,涞阜小片,114.13333333333333,38.63333333333333
11D06,河北,张家口,万全区,万全镇,晋语,张呼片,系属不明,114.59166666666667,40.84166666666667
11D01,河北,定州,（无）,西城区,冀鲁官话,石济片,定霸小片,115.025,38.45
11D04,河北,廊坊,广阳,南尖塔,北京官话,京承片,怀承小片,116.60138888888889,39.53958333333334
11D05,河北,邯郸,涉县,涉城,晋语,邯新片,磁漳小片,113.71666666666667,36.599999999999994
11586,河北,承德市,兴隆县,兴隆镇,冀鲁官话区,保唐片,蓟遵小片,117.725,40.44166666666666
11127,河北,承德市,滦平县,滦平镇,北京官话区,怀承片,滦平小片,117.21666666666667,40.925
11576,河北,雄安新区,安新,安新,官话,冀鲁官话,保唐,115.875,38.875
11578,河北,沧州,沧县,旧州,官话,冀鲁官话,沧惠,116.80000000000001,38.31666666666666
11584,河北,邢台,沙河,桥西,晋语,邯新片,磁漳小片,114.20833333333334,36.925
11582,河北,石家庄,鹿泉,获鹿镇,晋语,张呼片,张呼片,114.34166666666667,38.08333333333333
11585,河北,（无）,辛集,辛集,冀鲁官话,石济片,赵深小片,115.30833333333334,37.84166666666667
11583,河北,雄安新区,容城,容城镇,冀鲁官话,保唐片,定霸小片,115.82234,39.022817
11581,河北,邯郸市,邯山区,北张庄镇,晋语区,邯新片,磁漳小片,114.44999999999999,36.55833333333334
11580,河北,邯郸,馆陶,馆陶镇,冀鲁官话,石济,聊泰,115.38333333333333,36.61666666666667
11577,河北,廊坊,霸州,霸州,冀鲁官话,保唐片,定霸小片,116.574305,39.10932
11579,河北,衡水,故城,郑口,官话,冀鲁官话,石济片,116.0,37.291666666666664
11587,河北,雄安新区,雄县,雄州,冀鲁官话,保唐片,定霸小片,116.17666666666666,39.046527777777776
11588,河北,张家口市,张北,张北镇,晋语,张呼片,张家口,114.80833333333334,41.25833333333334
11291,河北,邯郸市,魏县,魏城镇魏州,无,无,无,114.9325,36.224444444444444
11288,河北,保定,满城区,满城镇,无,无,无,115.125,38.91666666666667
11289,河北,承德市,平泉县,（无）,无,无,无,118.6,41.0
11293,河北,沧州,献县,乐寿镇,无,无,无,116.16666666666666,38.20833333333333
11285,河北,秦皇岛,昌黎,昌黎镇,无,无,无,119.04166666666666,39.599999999999994
11292,河北,石家庄市,无极县,无极镇,无,无,无,114.951139601126,38.1832860202001
11290,河北,石家庄,平山,平山镇,无,无,无,113.93107,38.257052
11284,河北,秦皇岛市,北戴河区,戴河镇,无,无,无,119.4675,39.84236111111111
11287,河北,唐山,乐亭,乐亭镇,无,无,无,118.98333333333333,39.325
11286,河北,邢台市,巨鹿,巨鹿镇,无,无,无,115.02555555555556,37.27361111111111
11128,河北,唐山,迁西,兴城镇,无,无,无,118.35833333333332,40.2
11126,河北,唐山,滦南,马城乡,无,无,无,118.50833333333334,39.31666666666666
29A63,青海,西宁市,城东区,康乐社区,中原官话,秦陇片,西宁方言小片,101.82041666666666,36.60125
29A62,青海,海北藏族自治州,门源回族自治县,浩门镇,中原官话,秦陇片,西宁方言小片,101.8075,37.52208333333333
16F18,四川,成都,蒲江,鹤山,西南官话,灌赤片,岷赤小片,103.3,30.12
16F05,四川,达州,通川,（无）,西南官话,灌赤片,岷江小片,107.511447112,31.2209318
16F31,四川,成都,邛崃,临邛镇,西南官话,灌赤片,岷江小片,103.47,30.42
16F32,四川,成都市,郫都区,郫筒镇,西南官话,灌赤片,岷江小片,103.899475694,30.811589617
16F10,四川,成都,金堂,赵镇,西南官话区,成渝片,系属不明,104.444933,30.858411
16F34,四川,南充,阆中,保宁街道,西南官话,成渝片,系属不明,106.04166666666667,31.608333333333334
16F19,四川,广元,青川,乔庄,西南官话,成渝片,系属不明,105.11666666666667,32.56666666666666
16F07,四川,泸州,合江,合江镇,西南官话,灌赤片,岷江小片,105.838431958,28.81779304
16F08,四川,乐山,夹江,漹城镇,西南官话,西蜀片,雅甘小片,103.50833333333333,29.775
16F17,四川,宜宾,屏山县,屏山镇,西南官话,灌赤片,岷江小片,104.35267533908,28.8342749664
16F06,四川,乐山,峨眉山市,绥山镇,西南官话,灌赤片,岷江小片,103.39166666666667,29.491666666666667
16F04,四川,成都市,崇州市,崇阳镇,西南官话,灌赤片,岷江小片,103.46666666666667,30.691666666666666
16F01,四川,巴中,巴州区,江北街道办事处,西南官话,川黔片,成渝小片,106.7755131077,31.8576856026
16F16,四川,绵阳,平武,龙安,西南官话,成渝片,系属不明,104.4,32.50833333333333
16F35,四川,沐川市,（无）,（无）,西南官话,灌赤片,岷江小片,103.908467037426,28.9628882782155
16F36,四川,泸州,江阳区,（无）,西南官话,灌赤片,岷江小片,105.44154513382,28.8846719729
16F13,四川,眉山市,（无）,东坡区,西南官话,灌赤片,岷江小片,103.83852480217,30.048272134435
16F37,四川,宜宾市,筠连县,筠连镇,西南官话,灌赤片,仁富小片,104.48848896,28.142930337
16F12,四川,雅安市,芦山县,芦阳镇,西南官话,灌赤片,雅棉小片,102.956078080072,30.1449049888927
16F11,四川,乐山市,井研县,（无）,西南官话,灌赤片,仁富小片,104.0765107135,29.657303059
16F09,四川,广元,剑阁,剑阁,西南官话,成渝片,系属不明,105.5315760188,32.293478516
16F02,四川,绵阳市,北川县,曲山镇,汉语方言西南官话区,川黔片,成渝小片,104.23333333333333,31.883333333333333
16F14,四川,南充,顺庆区,东南街道,西南官话,四川官话,成渝片,106.100904,30.77331
16F15,四川,巴中市,南江县,南江镇,西南官话区,成渝片,系属不明,106.851217023937,32.3749792855861
16F27,四川,绵阳,盐亭,云溪镇,西南官话,灌赤片,岷江小片,105.40875486654,31.2567263698418
16F33,四川,雅安,荥经,严道镇,西南官话,灌赤片,岷江小片,102.63333333333333,29.708333333333336
16F24,四川,南充,西充,晋城镇,西南官话,灌赤片,岷江小片,105.83333333333333,31.058333333333334
16F23,四川,巴中,通江,诺江镇,西南官话区,成渝片,系属不明,107.244641575,31.949028155
16F03,四川,宜宾,长宁县,长宁镇,西南官话,灌赤片,岷江小片,104.89166666666667,28.516666666666666
16F21,四川,攀枝花,仁和区,仁和镇,西南官话,川西片,凉山小片,101.66666666666667,26.44166666666667
16F28,四川,南充市,仪陇县,金城镇,西南官话,成渝片,系属不明,106.3094301684,31.2775973599
16F29,四川,广安市,岳池县,九龙镇,西南官话区,川黔片,成渝小片,106.425,30.525
16F26,四川,成都市,新津县,武阳镇,西南官话区,灌赤片,岷江小片,103.8174330379,30.416363953
16F25,四川,成都市,新都区,新都街道,西南官话,灌赤片,岷江小片,104.0911111111111,30.821944444444448
16F22,四川,乐山市,沙湾区,沙湾镇,西南官话,灌赤片,岷江小片,103.55643566,29.419272499
16F20,四川,达州,渠县,渠江镇,西南官话灌赤片,成渝片,无,106.986975733,30.842753927
16F30,四川,德阳市,中江县,凯江镇,西南官话,成渝片,系属不明,104.84166666666667,30.9
16C79,四川,遂宁,射洪,平安街道办事处,西南官话,灌赤片,岷江小片,105.40833333333333,30.891666666666666
16C78,四川,自贡,荣县,旭阳镇,西南官话,灌赤片,仁富小片,104.36083333333333,29.39263888888889
16C77,四川,遂宁,蓬溪,赤城镇,西南官话,灌赤片,岷江小片,105.51666666666667,30.65
16C76,四川,宜宾,高县,庆符,西南官话,灌赤片,岷江小片,104.57499999999999,28.483333333333334
16C80,四川,宜宾,翠屏,老城区,西南官话,灌赤片,岷江小片,104.625,28.783333333333335
16C40,四川,宜宾,珙县,珙泉镇,西南官话,灌赤片,岷江小片,104.78617,28.37248
16C02,四川,广元,苍溪,陵江,西南官话,成渝片,成渝片,106.09166666666667,31.80833333333333
16C06,四川,成都市,都江堰市,奎光塔街道,西南官话,灌赤片,岷江小片,103.643927,30.955182
16C03,四川,广元市,朝天区,朝天镇,西南官话区,成渝片,川北小片,106.022163,32.70841
16C04,四川,成都,大邑县,新场镇,西南官话,灌赤小片,岷江小片,103.36666666666667,30.616666666666667
16C01,四川,资阳,安岳,岳阳镇,西南官话区,川黔片,成渝小片,105.34166666666667,29.983333333333334
16C07,四川,乐山,峨边,沙坪镇,西南官话,灌赤片,岷江小片,103.225,28.983333333333334
16C08,四川,自贡,富顺,富世镇,西南官话灌赤片,灌赤片,仁富小片,104.967755,29.203197
16C05,四川,眉山,丹棱县,丹棱镇,西南官话,灌赤片,岷江小片,103.90833333333333,30.0
16C18,四川,攀枝花市,米易县,攀莲镇,西南官话,川西片,凉山小片,101.99166666666667,26.933333333333334
16C16,四川,广安,邻水,城南镇,官话,西南官话,成渝小片,106.94009326,30.30616
16C12,四川,成都市,简阳市,简城街道,北方方言,西南官话川黔片,成渝小片,104.53333333333333,30.358333333333334
16C14,四川,乐山市,金口河区,永和镇,北方方言,西南官话西蜀片,岷赤小片,103.00666666666666,29.009722222222223
16C17,四川,成都,龙泉驿区,黄土镇,客家方言,四川客家方言,川西成都小片,104.29722222222222,30.63097222222222
16C11,四川,眉山,洪雅,洪川镇,西南官话,灌赤片,岷江小片,103.388245,29.928384
16C09,四川,泸州,古蔺,古蔺,西南官话,灌赤片,岷江小片,105.94999999999999,28.008333333333333
16C10,四川,广安,广安区,浓洄,西南官话,四川官话,成渝片,106.79166666666666,30.566666666666666
16C15,四川,乐山市,市中区,（无）,西南官话,灌赤片,岷江小片,103.75,29.608333333333334
16C13,四川,绵阳,江油市,中坝镇,西南官话区,成渝片,川黔小片,104.753987,31.7852649
16C20,四川,德阳,绵竹,剑南,西南官话,成渝片,系属不明,104.11666666666667,31.424999999999997
16C26,四川,雅安,石棉,新棉镇,西南官话,灌赤片,雅棉小片,102.21666666666667,29.183333333333334
16C25,四川,眉山市,青神县,青城镇,西南官话,灌赤片,岷江小片,103.83333333333334,29.808333333333334
16C19,四川,绵阳,涪城,城厢街道,西南官话,川黔片,成渝小片,104.764,31.46321
16C22,四川,成都,彭州,天彭镇,西南官话,灌赤片,岷江小片,103.41666666666667,31.166666666666664
16C29,四川,雅安市,天全县,城厢镇,西南官话,灌赤片,雅棉小片,102.782818,30.0668
16C27,四川,德阳,什邡,方亭,西南官话,灌赤片,岷江小片,104.17,31.13
16C24,四川,巴中,平昌,江口镇,西南官话,川黔片,成渝小片,106.90833333333333,31.566666666666666
16C28,四川,成都市,双流区,黄水镇,西南官话,灌赤片,岷江小片,104.01666666666667,30.441666666666666
16C21,四川,南充,南部,城关,西南官话,四川官话,成渝小片,105.92500000000001,31.28333333333333
16C33,四川,广安,武胜,沿口镇,西南官话,四川官话,成渝小片,106.315356,30.35565
16C35,四川,达州市,宣汉县,东乡镇,西南官话,川黔片,成渝小片,107.717711,31.388503
16C36,四川,攀枝花市,盐边县,桐梓林镇,西南官话,川西片,凉山小片,101.6,26.883333333333333
16C32,四川,内江,威远,严陵镇,西南官话区,灌赤片,仁富小片,104.575,29.575000000000003
16C39,四川,内江,资中,重龙镇,西南官话区,川黔片,成渝小区,104.86292,29.8219
16C38,四川,资阳,雁江,雁江,西南官话区,川黔片,成渝小片,104.94166666666666,30.06666666666667
16C34,四川,泸州,叙永,东城社区,西南官话,灌赤片,岷江小片,105.35833333333333,28.108333333333334
16C31,四川,广元,旺苍,东河镇,西南官话区,川黔片,成渝小片,106.37027777777777,32.35125
16C37,四川,南充,营山,朗池,西南官话,四川官话,成渝小片,106.57,31.07
16C30,四川,达州市,万源市,太平镇,西南官话区,川黔片,成渝小片,108.00659,32.072188
16374,四川,凉山彝族自治州,西昌市,北城社区,无,无,无,102.09166666666667,27.85
16307,四川,雅安,雨城,西城街道办事处,无,无,无,103.025,29.950000000000003
16303,四川,内江,隆昌,金鹅镇,无,无,无,105.23333333333333,29.358333333333334
16306,四川,遂宁,（无）,船山区,无,无,无,105.62152802077,30.5234996492826
16308,四川,自贡,自流井,（无）,无,无,无,104.783891268487,29.3521513929607
16300,四川,成都市,锦江区,（无）,无,无,无,103.89166666666668,30.758333333333333
16301,四川,德阳,旌阳,城北,无,无,无,104.4,31.208333333333332
16302,四川,南充,嘉陵,火花,无,无,无,106.080258,30.781111
16304,四川,内江市,市中区,（无）,无,无,无,104.85,29.608333333333334
16305,四川,眉山,仁寿,文林镇,无,无,无,104.25,29.96666666666667
20314,天津,天津,滨海新区（汉沽）,（无）,无,无,无,117.867206,39.256267
20319,天津,天津,静海,静海镇,无,无,无,116.95,38.833333333333336
20313,天津,天津,滨海新区（大港）,太平,无,无,无,117.50833333333333,39.083333333333336
20323,天津,天津,西青,杨柳青,无,无,无,117.085957,39.073617
20317,天津,（无）,蓟州区,渔阳镇,无,无,无,117.396071,40.036768
20315,天津,滨海新区,(无),塘沽,无,无,无,117.649081447178,39.0079361426823
20321,天津,（无）,宁河,芦台,无,无,无,117.689424025071,39.3815609960173
20311,天津,天津,宝坻,钰华街道,无,无,无,117.4,39.59166666666667
20318,天津,天津,津南,咸水沽镇,无,无,无,117.401553912572,38.9855927325704
20322,天津,（无）,武清,杨村街,无,无,无,117.05583333333333,39.41180555555556
20312,天津,天津,北辰,北仓,无,无,无,117.141512,39.238951
20316,天津,(无）,东丽区,新立街,无,无,无,117.416437,39.070199
20320,天津,（无）,南开,南市街道,无,无,无,117.145,39.0925
18J83,江西,赣州,龙南,龙南镇,客家方言,于信片,（系属不明）,114.68333333333334,24.75
18J80,江西,南昌市,进贤县,民和镇,赣语,抚广片,临川小片,116.283094751,28.3833769
18J75,江西,上饶市,德兴市,银城街道,徽语,祁德片,系属不明,117.6087379,28.93578558
18J78,江西,抚州市,广昌县,盱江镇,赣方言,抚广片,广昌小片,116.33333333333333,26.775
18J88,江西,赣州,兴国,潋江镇,客家方言,于信片,本地话,115.357192927,26.32123752
18J91,江西,鹰潭,余江,邓埠,赣语,鹰弋片,片属不详,116.91666666666667,28.34166666666667
18J74,江西,九江市,德安县,蒲亭镇,赣语,南昌片,系属不明,115.60833333333333,29.424999999999997
18J84,江西,九江,庐山,南康,赣语,昌靖片,系属不明,115.98333333333333,29.366666666666667
18J89,江西,抚州,宜黄,凤岗镇,赣方言,抚广片,系属不明,116.00833333333333,27.383333333333333
18J76,江西,宜春,奉新,冯川镇,赣方言,宜浏片,系属不明,115.14166666666667,28.71666666666667
18J87,江西,吉安市,泰和县,上解放路,赣方言,吉茶片,小片系属不明,114.80833333333334,26.741666666666667
18J77,江西,景德镇,浮梁,浮梁,徽语,祁德,赣东北,117.35833333333333,29.541666666666664
18J85,江西,赣州市,瑞金市,象湖镇,客家话,于信片,系属不明,116.03333333333333,25.916666666666664
18J86,江西,赣州,石城,琴江,客家方言,宁龙片,宁石小片,116.43333333333334,26.5
18J82,江西,抚州市,乐安县,鳌溪镇,赣方言,抚州片,临川小片,115.875,27.291666666666664
18J79,江西,赣州,会昌,文武坝镇,客家方言区,于信片,系属不明,115.75833333333333,25.700000000000003
18J90,江西,上饶市,余干县,玉亭镇,赣方言,鹰弋片,余干小片,116.7131566176,28.7113891966
18J81,江西,吉安,井冈山,厦坪,赣方言,赣语吉茶片,系属不明,114.1,26.633333333333333
18E37,江西,吉安,遂川,泉江镇,赣方言,赣语吉茶片,系属不明,114.48272342677,26.349727097
18E46,江西,上饶,鄱阳,饶州街道、鄱阳镇,赣方言,余干片,鄱阳小片,116.7324758409,29.02506362
18E47,江西,上饶市,弋阳县,弋江镇,赣方言,鹰弋片,东南小片,117.45,28.38
18E35,江西,九江,瑞昌,湓城街道,江淮官话,黄孝片,系属不明,115.40833333333333,29.616666666666667
18E26,江西,赣州,崇义,横水,客家话,于信片,系属不明,114.275,25.65833333333333
18E28,江西,赣州,定南,历市镇,客家方言区,宁龙片,系属不明,115.075,24.816666666666666
18E40,江西,吉安市,峡江县,水边镇,赣方言,吉茶片,水边话,115.3367732534,27.6104775044
18E34,江西,九江,彭泽,龙城,赣方言,鹰弋片,龙城小片,116.625,29.84166666666667
18E45,江西,上饶市,玉山县,冰溪镇,吴方言,上丽片,上山小片,118.241301233,28.675459537
18E43,江西,九江,永修,涂埠,赣语,昌靖片,系属不明,115.8154065868,29.0280056
18E42,江西,宜春,袁州区,灵泉街道,赣方言,宜浏片,系属不明,114.25833333333333,27.816666666666666
18E30,江西,上饶市,广丰区,横山镇,闽方言区,闽南片,赣东北小片廿四都福建话,118.209609622,28.31970806
18E25,江西,南昌市,安义县,鼎湖镇,赣语,昌靖片,南昌小片,115.6,28.725
18E36,江西,萍乡市,上栗县,上栗镇,赣方言,宜浏片,系属不明,113.925,27.825
18E41,江西,九江市,修水县,义宁镇,赣方言,昌靖片,系属不明,114.74166666666667,29.03333333333333
18E32,江西,景德镇,乐平,洎阳,赣语,鹰弋,鄱万,117.20833333333334,29.041666666666664
18E39,江西,宜春,万载,康乐,赣方言,宜浏,系属不明,114.295,28.228472222222223
18E31,江西,九江市,浔阳区,甘棠街道,江淮官话,黄孝片,系属不明,116.01185750114,29.7351197167
18E29,江西,新余,分宜,分宜镇,赣方言,宜浏片,系属不明,114.66666666666666,27.84166666666667
18E44,江西,赣州,于都,贡江镇,客家方言,于桂片,（无）,115.5,25.958333333333332
18E33,江西,抚州,南丰,琴城镇,赣方言,抚广片,南丰片,116.52472222222222,27.21125
18E27,江西,赣州,大余,南安镇,客家方言,于信片,于信片暂未划分小片,114.36666666666667,25.433333333333334
18E38,江西,吉安,万安,芙蓉镇,赣方言,吉茶片,系属不明,114.80068055555554,26.455402777777778
18934,江西,吉安,永丰,沿陂,中原官话,信蚌片,信阳小片,115.60833333333333,27.083333333333336
18935,江西,抚州市,资溪县,鹤城镇,赣方言,抚广片,资溪小片,117.025,27.691666666666666
18928,江西,上饶市,铅山县,河口镇,赣方言,鹰弋片,东南小片,117.71666666666667,28.1
18927,江西,萍乡市,安源区,凤凰街,赣方言,宜春片,萍乡小片,113.91666666666666,27.65833333333333
18933,江西,鹰潭,月湖区,四青街道办事处,赣方言,鹰弋片,鹰潭,117.09166666666667,28.133333333333333
18926,江西,赣州市,南康区,蓉江街道,客家方言区,赣南片,中心小片,114.7,25.85
18922,江西,吉安,安福,平都,赣,吉茶,系属不明,114.39166666666667,27.333333333333336
18925,江西,吉安,吉州区,白塘街道,赣语,吉茶片,吉安,114.85,26.958333333333332
18932,江西,赣州,寻乌,长宁镇,客家方言,宁龙片,系属不明,115.625,24.85
18924,江西,抚州,临川,荆公路,赣方言,抚广片,抚州片,116.35,27.98
18930,江西,南昌,湾里,梅岭,赣方言,昌靖,南昌,115.71666666666667,28.791666666666668
18936,江西,上饶,婺源,蚺城,徽语,休黟,赣东北,118.025,29.325000000000003
18931,江西,九江,武宁,新宁,赣方言区,昌靖片,系属不明,115.234728,29.199293
18929,江西,宜春,上高,敖阳镇,赣方言,宜浏片,上高小片,114.81666666666666,28.225
18923,江西,宜春,丰城,剑光,赣语,宜浏,丰城剑光镇话（系属不详）,115.93333333333334,28.075
18937,江西,九江市,都昌县,都昌镇,赣语,昌靖片,都昌,116.33347222222221,29.237222222222222
18938,江西,萍乡,莲花,琴亭,赣方言,吉安-茶陵,系属不明,113.95833333333334,27.2
18942,江西,吉安,永新,禾川镇,赣语,吉茶片,永小片,114.15833333333333,27.008333333333333
18940,江西,上饶市,信州区,东市街道,吴语,处衢片,龙衢小片,117.92,28.43
18941,江西,新余,渝水区,城南,赣方言,宜浏片,宜春小片,115.06666666666666,27.833333333333332
18939,江西,抚州市,南城县,建昌镇,赣语,抚广片,南城小片,116.67500000000001,27.541666666666668
18372,江西,抚州,黎川,日峰镇,无,无,无,116.93333333333334,27.28333333333333
18355,江西,宜春,高安,筠阳,无,无,无,115.304481930782,28.3652318079564
18360,江西,宜春市,铜鼓,永宁镇,无,无,无,114.40833333333333,28.6
18356,江西,上饶市,广丰区,永丰街道办事处,无,无,无,118.25,28.333333333333336
18357,江西,景德镇市,珠山区,昌江街道,无,无,无,117.249067,29.288111
18354,江西,赣州,章贡,解放,无,无,无,114.945127,25.823101
18361,江西,吉安,永丰,恩江,无,无,无,115.4629,27.249753
18353,江西,赣州,安远,欣山镇,无,无,无,115.38333333333333,25.233333333333334
18358,江西,南昌,西湖区,（无）,无,无,无,115.898947651789,28.6573258856036
18359,江西,赣州市,宁都县,梅江镇,无,无,无,115.975,26.608333333333334
27F82,内蒙古,阿拉善盟,左旗,巴彦浩特,兰银官话,银吴片,（系属不明）,105.1,39.63333333333333
27F84,内蒙古,满洲里市,（无）,道北街道办事处,东北官话,黑松片,嫩克小片,117.54166666666667,49.5
27F85,内蒙古,赤峰市,宁城县,八里罕镇,北京官话,朝峰,小片系属未明,118.83333333333334,41.58333333333333
27F83,内蒙古,呼伦贝尔市,海拉尔区,（无）,东北客话,黑松片,嫩克小片,119.74246537,49.21821579
27F86,内蒙古,兴安盟,乌兰浩特市,（无）,东北官话,哈阜片,长锦小片,122.099622351,46.0786543
27C73,内蒙古,锡林郭勒盟,锡林浩特市,额尔敦街道,北京官话,朝峰片,系属不明,116.19999999999999,43.95
27C71,内蒙古,通辽市,科尔沁区,铁南街道,东北官话,哈阜片,长锦小片,122.36666666666667,43.66666666666667
27C70,内蒙古,赤峰市,红山区,三中街办事处,北方方言区,北京官话,朝峰片,119.00833333333333,42.025
27C69,内蒙古,乌海市,海勃湾区,千里山镇,内蒙古晋语,五台片,系属不明,106.925,39.69166666666666
27C72,内蒙古,锡林郭勒盟,太仆寺旗,宝昌镇,晋语,张呼片,系属不明,115.33333333333333,41.875
27386,内蒙古,包头市,东河区,北梁新区,无,无,无,110.1901388888889,40.58111111111111
27390,内蒙古,乌拉察布市,集宁区,新华街街道办事处,无,无,无,113.081286857396,41.0305211875139
27388,内蒙古,呼和浩特市,玉泉区,桃花乡,无,无,无,111.67,40.75
27389,内蒙古,巴彦淖尔市,临河区,新华办事处,无,无,无,107.41666666666666,40.925
27387,内蒙古,鄂尔多斯市,东胜区,罕台镇,无,无,无,109.76041666666669,39.57472222222222
19F43,宁夏,中卫,沙坡头区,滨河镇,兰银官话,银吴片,中卫,105.20817022509,37.50718999875
19948,宁夏,固原市,泾源县,香水镇,中原官话,关中片,泾源话,106.34,35.475
19949,宁夏,固原市,西吉县,吉强镇,中原官话,陇中片,西隆小片,105.825,36.21666666666667
19947,宁夏,吴忠,同心,豫海镇,兰银官话,银吴片,同心小片,105.98333333333333,37.05
19309,宁夏,固原市,原州区,北塬街道办,无,无,无,106.280457,36.051979
19310,宁夏,银川,兴庆区,胜利南街,无,无,无,106.20833333333333,38.5
26J53,湖南,怀化市,通道,双江镇,湘方言,辰溆片,辰溆片,109.725,26.175
26J51,湖南,邵阳,邵东,两市塘,湘语,娄邵片,邵武小片,111.7504907,27.2645074715
26J38,湖南,长沙市,长沙县,星沙镇,湘语区,长益片,长株潭小片,113.08755916,28.251818487
26J45,湖南,湘潭市,韶山市,清溪镇,土话区,湘南土话,蓝山土话,112.17500000000001,25.316666666666666
26J52,湖南,常德市,石门县,楚江街道,西南官话区,常澧片,系属不明,111.3864514,29.5903659
26J39,湖南,郴州,北湖区,人民路街道办事处,西南官话区,湘南片,系属不明,112.88333333333333,25.641666666666666
26J60,湖南,株洲,芦淞区,建宁街道,湘方言,长益片,长株潭小片,113.158418672,27.79150882
26J42,湖南,衡阳,衡南,云集,湘语,衡州,衡阳,112.64927653,26.71938685
26J57,湖南,湘潭,雨湖,窑湾,湘语,长益片,长潭小片,112.78462777777777,27.898831944444446
26J47,湖南,湘西土家族苗族自治州,龙山,民安,湘语,娄邵片,武邵小片,109.45041573,29.4641217658
26J55,湖南,怀化,新晃,镇西街,西南官话,湖广片,怀玉小片,109.18147151,27.35878296
26J40,湖南,湘西土家族苗族自治州,古丈,古阳镇,西南官话,吉永片,吉沅小片,109.66666666666666,28.575
26J48,湖南,娄底市,娄星区,花山,湘语,娄邵片,湘双小片,112.0,27.73
26J58,湖南,张家界市,永定区,崇文街道办事处,西南官话,湖广片,鄂中小片,110.544431923,29.12619055
26J50,湖南,永州,宁远,文庙街道,湘南土话,宁远土话,系属不明,111.9524534,25.5770519374
26J61,湖南,怀化,沅陵,麻溪铺镇,非官话未分区,系属不明,系属不明,110.400430766,28.4590181
26J43,湖南,郴州,嘉禾,珠泉镇,西南官话区,湘南片,系属不明,112.41236111111111,25.61402777777778
26J41,湖南,常德,汉寿,龙阳镇,西南官话,湖广片,湘北小片,112.00819444444444,28.856250000000003
26J56,湖南,邵阳,新宁,金石镇,湘语,娄邵片,邵武小片,110.861793883,26.4353419
26J62,湖南,常德,澧县,澧阳镇,西南官话,湖广片,湘北小片,111.6,29.608333333333334
26J44,湖南,常德,津市,汪家桥,西南官话,湖广片,湘北小片,111.88333333333333,29.458333333333332
26J54,湖南,湘潭,湘潭,易俗河镇,湘语,长益片,长潭小片,112.954126161,27.735205878
26J59,湖南,怀化,中方,中方镇,西南官话,怀靖片,怀凤小片,109.93306459,27.436334779
26J37,湖南,湘西土家族苗族自治州,保靖县,迁陵镇,西南官话,吉永片,吉沅小片,109.51666666666667,28.65833333333333
26J46,湖南,常德,临澧,安福,西南官话,常澧,（吴）（方言内部统一，无小片）,111.60833333333333,29.525
26J49,湖南,益阳,南县,南洲,湘方言,长益片,长株潭小片,112.49166666666667,29.28333333333333
26A55,湖南,岳阳市,岳阳楼区,吕仙亭,赣语,大通片,岳州小片,113.15,29.333333333333332
26D60,湖南,郴州,永兴,便江,赣语,耒资,系属不明,113.1086618,26.1419961
26D56,湖南,湘潭市,韶山市,清溪镇,湘方言区,娄邵片,湘双小片,112.50833333333334,27.933333333333334
26D53,湖南,怀化,麻阳苗族自治县,高村,北方方言区(西南官话区),湖广片,怀玉小片,109.75902777777777,27.781666666666666
26D63,湖南,岳阳,汨罗,归义,湘方言,长益片,长株潭小片,113.15,28.958333333333332
26D45,湖南,邵阳,洞口,洞口镇,赣语,洞绥片,洞口小片,111.04166666666667,27.108333333333334
26D52,湖南,邵阳,隆回,桃洪镇,湘方言,娄邵片,武邵小片,111.072859,27.153237
26D48,湖南,永州,江永,潇浦,湖南土话,永州,江永,111.2538866,25.1999882
26D59,湖南,湘西土家族苗族自治州,永顺,灵溪,西南官话区,湖广片,湘西小片,109.98333333333333,29.075
26D64,湖南,怀化市,溆浦,卢峰,湘方言,辰溆片,辰溆片,110.63333333333333,27.8
26D62,湖南,郴州,资兴,兴宁镇,赣方言,耒资片,系属不明,112.43333333333334,25.933333333333334
26D42,湖南,怀化,辰溪,辰阳,湘语,辰溆片,系属未明,110.21666666666667,28.049999999999997
26629,湖南,湘西土家族苗族自治州,花垣,花垣,西南官话,吉永片,吉沅小片,109.44166666666666,28.4
26D41,湖南,株洲,茶陵,云阳街道,赣方言,吉茶片,（小片信息暂不确定）,113.70833333333333,26.808333333333334
26D49,湖南,娄底,冷水江,布溪街道,湘语,娄邵片,新化小片,111.46347222222221,27.67875
26D51,湖南,岳阳,临湘,长安,赣语,大通,系属未明,113.5,29.516666666666666
26D61,湖南,岳阳市,岳阳县,荣家湾镇,湘语,长益片,岳阳小片,113.225,29.35
26D57,湖南,永州,双牌,泷泊,官话,西南官话,永州官话,111.6520961,25.9651792
26D54,湖南,岳阳,平江,汉昌,赣方言,大通片,小片暂不明,113.65833333333333,28.758333333333333
26D58,湖南,常德,桃源,浔阳,西南官话,常澧,系属不明,111.225,28.9
26D43,湖南,张家界,慈利,零阳,西南官话,常澧片,系属不明,111.165385,29.363804
26D50,湖南,郴州,临武,舜峰,湘南土话,系属不明,系属不明,112.55833333333334,25.35
26D55,湖南,张家界,桑植,澧源镇,西南官话,吉永片,永龙小片,110.225,29.55
26D47,湖南,湘西,吉首,乾州,西南官话,吉永片,无,109.78333333333333,28.308333333333334
26D40,湖南,常德,安乡,深柳,西南官话,湖广片,湘北小片,112.14166666666667,29.441666666666666
26D44,湖南,永州,东安,石期市,湘语,永全片,东祁小片,111.275,26.491666666666667
26A45,湖南,永州,蓝山,塔峰镇,西南官话,桂柳片,湘南小片,112.17500000000001,25.316666666666666
26A44,湖南,怀化市,靖州苗族侗族自治县,渠阳镇土桥街道,西南官话,怀靖,靖晃,109.60694444444445,26.525
26A61,湖南,株洲市,醴陵市,仙岳山,赣方言,宜浏片,浏醴片,113.46277777777777,27.66972222222222
26A41,湖南,衡阳,衡山,开云镇,湘语,衡州片,衡山小片,112.838165,27.262895
26A40,湖南,衡阳,衡东,洣水镇,湘语,衡州片,衡山小片,113.01666666666667,27.116666666666667
26400,湖南,永州市,道县,上关街道办事处,西南官话区,桂柳片,湘南小片,111.6418134,25.4640112
26A53,湖南,湘潭,湘乡,新湘路,湘,娄邵片,湘双,112.5105202,27.77165044
26A48,湖南,郴州,汝城,卢阳,客家话,铜桂片,汝桂小片,113.625,25.59166666666667
26A59,湖南,长沙市,浏阳市,淮川街道,赣方言,宜浏片,原城关镇,113.70833333333334,28.208333333333336
26A58,湖南,益阳市,沅江市,琼湖镇,湘方言区,长益片,益沅小片,112.58333333333334,28.941666666666666
26A52,湖南,常德市,武陵区,启明街道办事处,西南官话,常澧片,系属不明,111.6888888888889,29.055
26A60,湖南,衡阳,耒阳,蔡子池办事处,赣方言,耒资片,系属不明,112.92500000000001,26.424999999999997
26A57,湖南,怀化,芷江侗族自治县,芷江镇,北方方言区,西南官话,黔北,109.61110485,27.40251
26A43,湖南,永州,江华,涛圩,湘南土话,永州片,江华小片,111.542077,24.826618
26A47,湖南,衡阳,祁东,过水坪镇（过水坪镇与洪桥镇相邻，两地都属祁东城关话，即祁东中部方言）,湘语,永全,东祁,112.12,26.78
26A36,湖南,郴州,安仁,永乐江,赣语,耒洞,安常小片,113.34166666666667,26.558333333333334
26A54,湖南,郴州,宜章,梅田镇,湘南土话,郴州,宜章,112.975,25.28333333333333
26A49,湖南,邵阳,双清,高崇山镇,湘方言,娄邵片,武邵小片,111.596515,27.259527
26A35,湖南,益阳,安化,东坪镇,湘方言,娄邵片,湘双小片,111.95833333333333,28.566666666666666
26A51,湖南,邵阳,武冈,辕门口办事处,湘语,娄邵片,武邵小片,110.72958333333334,26.79041666666667
26A37,湖南,邵阳市,城步苗蔟自治县,儒林镇,湘语,娄邵片,武邵小片,110.32,26.37
26A56,湖南,株洲市,攸县,鸾山镇,客家方言区,铜桂片,系属不明,113.50541666666666,27.108888888888888
26A46,湖南,长沙市,宁乡市,玉潭镇,湘语区,长益片,长株潭小片,112.325,28.200000000000003
26A39,湖南,郴州,桂东,沤江镇,客家话区,于桂片,系属不明,113.925,25.975
26A50,湖南,益阳,桃江,桃花江镇,湘,长益片,益沅小片,112.1880025,28.5198811
26A38,湖南,湘西土家族苗族自治州,凤凰,沱江,西南官话,怀靖片,怀凤小片,109.55,28.025
26A42,湖南,怀化市,会同县,林城镇,湘语,娄邵片,绥会小片,109.79166666666667,26.90833333333333
26518,湖南,永州,冷水滩区,岚角山镇,无,无,无,111.625,26.53333333333333
26558,湖南,益阳,资阳区,长春镇,无,无,无,112.326893794332,28.6861468273293
26508,湖南,邵阳,邵阳,塘渡口镇,无,无,无,111.282687366854,26.9974219733459
26516,湖南,长沙,开福区,（无）,无,无,无,113.024729971827,28.2602190564223
26507,湖南,永州,祁阳,浯溪镇,无,无,无,111.871392762963,26.6050541492535
26510,湖南,邵阳市,绥宁,长铺镇,无,无,无,110.164733,26.580184
26502,湖南,衡阳市,（无）,（无）,无,无,无,112.583818810716,26.8981644153581
26511,湖南,岳阳市,湘阴,城关镇,无,无,无,112.895103678305,28.6773810066888
26506,湖南,娄底市,涟源,蓝田街道办事处,无,无,无,111.692165078164,27.7110311155773
26514,湖南,株洲,炎陵,沔渡,无,无,无,113.84166666666667,26.35
26501,湖南,郴州,桂阳,四里镇,无,无,无,112.56666666666666,25.833333333333332
26515,湖南,永州,冷水滩,菱角山,无,无,无,111.625,26.53333333333333
26517,湖南,株洲,株洲,渌口镇,无,无,无,113.15,27.608333333333334
26403,湖南,湘西土家族苗族自治州,泸溪县,武溪镇,无,无,无,110.164663604881,28.268268589879
26503,湖南,怀化,洪江,安江镇,无,无,无,109.987158,27.172276
26509,湖南,娄底市,双峰,永丰镇,无,无,无,112.206718246993,27.4570817848876
26500,湖南,衡阳,常宁,培元,无,无,无,112.4,26.358333333333334
26512,湖南,娄底市,新化县,上梅镇,无,无,无,111.21666666666667,27.875
26505,湖南,怀化市,鹤城区,盈口乡,无,无,无,109.973889618485,27.5512186762661
26513,湖南,永州,新田,三井镇,无,无,无,112.20833333333334,25.883333333333333
26504,湖南,岳阳,华容,章华,无,无,无,112.65833333333333,29.483333333333334
21J03,安徽,黄山市,徽州区,岩寺镇,徽语,绩歙片,系属不明,118.33,29.82
21J02,安徽,黄山市,黄山区,甘棠镇,吴语,宣州,太高,118.09166666666667,30.266666666666666
21J04,安徽,滁州市,天长县,天长街道,江淮官话,洪巢片,扬州小片,118.93333333333334,32.7
21J01,安徽,滁州市,琅琊区,遵阳街道社区,官话,江淮官话,洪巢片,118.31244134,32.30086749
21J05,安徽,黄山市,休宁县,海阳镇,徽语,休宁片,海阳小片,118.04166666666667,29.71666666666667
21E52,安徽,芜湖市,镜湖区,大砻坊公共服务中心,江淮官话,洪巢片,系属未明,118.40833333333333,31.258333333333333
21E58,安徽,铜陵市,义安区,五松镇,吴语,宣州片,铜泾小片,117.93416666666667,30.942777777777778
21E55,安徽,池州市,青阳县,蓉城镇,江淮官话,洪巢片,蓉九小片,118.20833333333334,30.575
21E49,安徽,芜湖,繁昌,繁阳,吴语,宣州,铜泾,118.2054243183,31.107958593
21406,安徽,黄山,祁门,祁山镇,徽语,祁婺片,系属不明,117.575,29.858333333333334
21E62,安徽,黄山市,歙县,徽城镇,徽语,绩歙片,系属不明,118.56666666666666,29.808333333333334
21E50,安徽,宣城,广德,桃州,江淮官话,洪巢片,系属不明,119.35,30.90833333333333
21E48,安徽,池州市,贵池区,秋浦街道办事处,江淮官话,洪巢片,系属不明,117.46666666666667,30.525
21E57,安徽,安庆市,桐城市,城关镇文昌街道,江淮官话,洪巢片,安庆小片,116.90833333333333,30.958333333333332
21E51,安徽,淮南市,田家庵区,舜耕镇,江淮官话,洪巢片,系属不明,116.975,32.608333333333334
21E60,安徽,宣城市,宣州区,西林街道办事处,江淮官话区,洪巣片,宣州方言,118.76666666666667,30.941666666666666
21E61,安徽,安庆市,岳西,天堂镇,赣语,怀岳片,系属不明,116.19166666666666,30.75
21E59,安徽,芜湖市,无为县,无城镇,江淮官话,洪巢片,无,117.90833333333333,31.21666666666667
21E56,安徽,池州市,石台县,仁里镇,赣语,怀岳片,系属不明,117.59166666666667,30.191666666666666
21E53,安徽,芜湖,南陵,籍山,吴语,宣州,铜泾,118.225,30.9
21A24,安徽,宣州,绩溪,华阳镇,徽语,绩歙片,华阳镇,118.625,30.141666666666666
21A28,安徽,安庆市,望江县,华阳镇,赣语,怀岳片,系属不明,116.68,30.13
21A25,安徽,宣城,郎溪,建平镇,江淮官话,洪巢片,系属不明,119.11666666666666,31.133333333333333
21A33,安徽,铜陵市,枞阳县,枞阳镇,江淮官话,黄孝片,系属不明,117.441757,30.883323
21A32,安徽,宣城市,泾县,泾川镇,吴语,宣州片,铜泾小片,118.31666666666666,30.59166666666667
21A27,安徽,马鞍山市,花山区,霍里街道,官话,江淮官话,洪巢片,118.578347,31.7116271
21A21,安徽,蚌埠市,蚌山区,雪花乡,官话,中原官话,信蚌片,117.35,32.91666666666667
21A29,安徽,芜湖市,芜湖,湾沚镇,江淮官话,洪巢片,小片系属不明,118.50833333333333,31.174999999999997
21A23,安徽,安庆市,怀宁县,高河镇,赣语,怀岳片,小片系属不明,116.75833333333333,30.583333333333332
21A26,安徽,六安市,金安区,清水河街道,官话,江淮官话,洪巢片,116.63333333333333,31.675
21A34,安徽,宣城市,旌德县,旌阳镇,徽语,旌占片,系属不明,118.36666666666667,30.233333333333334
21A30,安徽,铜陵市,义安区,五松镇,吴语,宣州片,铜泾小片,118.18333333333334,30.941666666666666
21A31,安徽,亳州市,谯城区,薛阁街道办事处,中原官话区,商阜片,亳州方言,115.761072,33.798766
21A20,安徽,安庆市,迎江区,宜城路街道办事处,官话,江淮官话,黄孝片,117.02,30.3
21A22,安徽,池州市,东至县,尧渡镇,赣语,怀岳片,系属不明,116.975,30.03333333333333
21350,安徽,安庆市,宿松县,孚玉镇,无,无,无,116.22916666666666,30.111111111111114
21352,安徽,（宿州市）,（埇桥区）,（无）,无,无,无,117.027133,33.653459
21344,安徽,阜阳市,颍州区,鼓楼办事处,无,无,无,115.7,32.875
21351,安徽,黄山市,黟县,碧阳镇,无,无,无,117.86666666666667,29.983333333333334
21346,安徽,合肥,蜀山,南七街道办事处,无,无,无,117.231280443614,31.8381849288031
21343,安徽,合肥市,巢湖市,凤凰山街道,无,无,无,117.825251,31.647044
21348,安徽,黄山,屯溪,黎阳镇,无,无,无,118.29388888888889,29.724444444444444
21349,安徽,淮北市,相山区,渠沟镇,无,无,无,116.732411,33.98618
21345,安徽,安庆,潜山,梅城镇,无,无,无,116.45833333333334,30.758333333333333
21347,安徽,安庆,太湖,晋熙镇,无,无,无,116.125,30.458333333333332
28E76,陕西,榆林,吴堡,宋家川街道,晋语,吕梁片,汾州小片,110.65833333333333,37.575
28E70,陕西,安康,白河,城关,官话,中原官话,小片系属不明,109.89166666666667,32.74166666666667
28E73,陕西,汉中市,勉县,勉阳街道办事处,中原官话,秦陇片,系属不明,106.65,33.25833333333333
28E78,陕西,榆林市,榆阳区,鼓楼街道,晋语,大包片,系属不明,109.66666666666667,38.15833333333333
28E74,陕西,咸阳市,乾县,城关镇,中原官话区,关中片,系属不明,108.20430555555555,34.539027777777775
28E77,陕西,咸阳市,渭城区,中山街,中原官话,关中片,东府小片,108.7317535728,34.340067501
28E72,陕西,延安市,黄陵县,桥山街道办,中原官话,关中片,小片系属不明,108.975,35.575
28E71,陕西,宝鸡市,凤翔县,城关镇,中原官话,秦陇片,系属不明,107.41125,34.550555555555555
28E79,陕西,商洛市,镇安县,永乐街道办事处,江淮官话,黄孝片,系属不明,109.159574609,33.42904465
28E80,陕西,汉中,镇巴,泾洋街道办,西南官话,川黔片,陕南小片,107.84166666666667,32.483333333333334
28E81,陕西,安康市,石泉,中池镇,陕南湘语,系属不明,系属不明,108.2486111111111,33.04902777777778
28E75,陕西,咸阳,三原,城关,中原官话,关中片,系属不明,108.975,34.7
28995,陕西,榆林市,清涧县,宽州镇,晋语,吕梁片,汾州小片,110.275,37.18333333333334
28999,陕西,西安市,莲湖区,北院门街道办事处,中原官话,关中片,系属不明,108.74166666666667,34.21666666666667
28997,陕西,榆林市,绥德,名州镇鼓楼街道,晋语,五台片,系属不明,110.375,37.50833333333333
28998,陕西,渭南,临渭区,向阳,中原官话,关中片,系属不明,109.55638888888889,34.51833333333333
2899B,陕西,铜川市,耀州区,天宝路街道办事处,中原官话,关中片,系属不明,108.9782329,34.924731
28992,陕西,安康市,汉阴县,城关镇,西南官话,川黔片,陕南小片,108.45833333333334,33.11666666666667
28993,陕西,汉中市,汉台区,汉中路街道办事处,中原官话区,秦陇片,系属不明,107.00833333333333,33.2
2899A,陕西,咸阳,旬邑,城关街道办事处,中原官话,关中片,系属不明,108.5,35.25
28996,陕西,商洛市,商州区,刘湾,北方方言,中原官话,关中片,109.86666666666667,33.90833333333333
28994,陕西,宝鸡市,千阳县,城关镇,中原官话,秦陇片,系属不明,107.15638888888888,34.75416666666666
28398,陕西,榆林市,神木县,神木镇,无,无,无,110.28333333333333,38.833333333333336
28394,陕西,渭南,韩城,新城街道,无,无,无,110.36666666666666,35.58333333333333
28396,陕西,安康,平利,城关镇,无,无,无,109.312366,32.344473
28399,陕西,延安市,宝塔区,凤凰街道办事处,无,无,无,109.487314,36.605928
28393,陕西,渭南,富平,城关镇,无,无,无,109.18,34.75
2839X,陕西,延安,延川,大禹街道,无,无,无,110.01666666666667,36.85
28397,陕西,宝鸡,岐山,凤鸣镇,无,无,无,107.73333333333333,34.36666666666667
28395,陕西,渭南市,合阳县,城关镇,无,无,无,110.20833333333334,35.20833333333333
28392,陕西,汉中,城固,博望街道,无,无,无,107.275,33.20833333333333
28391,陕西,安康,汉滨（安康点）,新城办事处,无,无,无,108.94166666666666,32.825
12373,陕西,西安市,户县,甘亭街道办事处,无,无,无,108.5675,34.019999999999996
17D96,贵州,黔南布依族苗族自治州,福泉市,金山办事处,西南官话,桂柳片,黔南小片,107.52643281158,26.6925257007
17D99,贵州,铜仁市,玉屏侗族少数民族自治县,平溪镇,西南官话区,镇台片,怀玉小片,108.96666666666667,27.316666666666666
17D92,贵州,凯里市,镇远,舞阳镇,西南官话,湖广片,黔东小片,108.5,27.075000000000003
17D97,贵州,六盘水市,钟山区,荷城街道,西南官话,川黔片,成渝小片,104.850529816959,26.5807040796222
17D98,贵州,黔南布依族苗族自治州,平塘,金盆,西南官话,桂柳片,黔南小片,107.32956664388,25.8282017069
17C75,贵州,遵义市,桐梓县,娄山关,西南官话区,渝黔片,黔北小片,106.85833333333333,28.424999999999997
17C74,贵州,黔东南苗族侗族自治州,黎平县,德凤镇,西南官话区,湖广片,黎靖小片,109.01666666666667,26.1
17C53,贵州,黔南苗族自治州,瓮安县,瓮水街道办事处,西南官话区,西蜀片,岷赤小片,107.495001,27.139425
17C50,贵州,毕节市,大方县,红旗街道,西南官话,川黔片,成渝小片,105.614289,27.142129
17C52,贵州,毕节,威宁,六桥街道,西南官话,云南片,滇中小片,104.175,27.016666666666666
17C49,贵州,铜仁市,碧江区,环北办事处,西南官话,黔渝片,黔东小片,109.15,27.65
17C51,贵州,毕节,金沙,鼓场街道,西南官话,川黔片,成渝小片,106.25833333333333,27.441666666666666
17C54,贵州,安顺,西秀区,西航街道,北方方言,西南官话川黔片,黔中小片,106.04166666666666,26.191666666666666
17371,贵州,黔南布依族苗族自治州,都匀市,小围寨街道办事处,无,无,无,107.44166666666666,26.141666666666666
17423,贵州,六盘水市,六枝特区,平寨镇,无,无,无,105.42500000000001,26.266666666666666
17281,贵州,铜仁市,思南县,思唐镇,无,无,无,108.306472,27.945339
17277,贵州,贵阳,南明区,花果园,无,无,无,106.75833333333333,26.53333333333333
17283,贵州,遵义,红花岗区,中华路街道办事处,无,无,无,106.86486111111111,27.645
17278,贵州,贵阳市,花溪区,青岩镇,无,无,无,106.675,26.333333333333336
17276,贵州,毕节市,七星关区,（无）,无,无,无,105.38333333333333,27.40833333333333
17279,贵州,黔东南,凯里,洗马河街道,无,无,无,107.996129903262,26.5980699157799
17280,贵州,遵义,仁怀,中枢,无,无,无,106.29708333333333,27.86513888888889
17282,贵州,黔西南州,兴义,桔山镇,无,无,无,104.916452056617,25.104385604729
10G65,江苏,苏州市,昆山,高新区,无,无,无,120.97847222222222,31.326388888888893
10G63,江苏,无锡市,江阴市,澄江镇,无,无,无,120.27916666666667,31.818055555555556
10G86,江苏,宿迁,泗洪县,（无）,无,无,无,118.35,33.43333333333334
10G61,江苏,南通市,海门市,四甲镇,无,无,无,121.2668067,32.0484970238
10G87,江苏,常州市,溧阳市,（无）,无,无,无,119.36666666666667,31.416666666666664
10G71,江苏,苏州市,姑苏区,（无）,无,无,无,120.625,31.40833333333333
10G58,江苏,连云港,赣榆区,青口镇,无,无,无,119.17943461,34.84768246
10G66,江苏,连云港,海州区,（无）,无,无,无,119.12,34.57
10G75,江苏,南通市,通州区,金沙镇,无,无,无,121.05000000000001,32.05833333333334
10G64,江苏,泰州市,靖江市,靖城镇,无,无,无,120.2756443,32.02017094
10G59,江苏,南京市,高淳区,淳溪街道,无,无,无,118.8763554,31.36095469
10G56,江苏,镇江,丹阳市,云阳镇,无,无,无,119.5899833,31.9916235
10G70,江苏,南通市,启东市,（无）,无,无,无,121.66805555555555,31.978472222222223
10G77,江苏,苏州市,吴江区,（无）,无,无,无,120.62541666666667,30.994027777777777
10G74,江苏,苏州市,太仓市,（无）,无,无,无,121.15,31.541666666666664
10G83,江苏,无锡市,宜兴市,（无）,无,无,无,119.78333333333333,31.366666666666667
10G72,江苏,宿迁,宿城区,（无）,无,无,无,118.28,33.94
10G55,江苏,常州市,钟楼区,（无）,无,无,无,119.9084627,31.807646657
10G54,江苏,苏州市,常熟市,虞山镇,无,无,无,120.8,31.674999999999997
10G84,江苏,苏州市,张家港市,杨舍镇,无,无,无,120.61625,31.876666666666665
10G80,江苏,徐州,云龙区,（无）,无,无,无,117.51666666666667,34.34166666666667
10G76,江苏,无锡市,梁溪区,（无）,无,无,无,120.29,31.59
10G57,江苏,徐州,丰县,（无）,无,无,无,116.60258246,34.699769765
10G81,江苏,盐城,亭湖区,（无）,江淮官话,洪巢片,系属不明,120.2045781,33.39589348
10G85,江苏,镇江,（无）,（无）,江淮官话,洪巢片,系属不明,119.4304894,32.19471592
10G68,江苏,南京,（无）,（无）,江淮官话,洪巢片,系属不明,118.46,32.02
10G69,江苏,南通市,（无）,（无）,江淮官话,泰如片,系属不明,120.86,32.01
10G78,江苏,（无）,响水,（无）,江淮官话,洪巢片,系属不明,119.78333333333333,34.233333333333334
10G53,江苏,扬州市,宝应县,（无）,江淮官话,洪巢片,系属不明,119.42138888888888,33.23069444444444
10G82,江苏,扬州市,广陵区,汶河,江淮官话,洪巢片,系属不明,119.43,32.38
10G73,江苏,泰州市,海陵区,（无）,江淮官话,泰如片,系属不明,119.89166666666667,32.50833333333334
10G60,江苏,南通市,海安县,（无）,江淮官话,泰如片,系属不明,120.54166666666667,32.625
10G67,江苏,淮安,涟水,（无）,江淮官话,洪巢片,系属不明,119.375,33.88333333333333
10G62,江苏,淮安,清浦区,（无）,江淮官话,洪巢片,系属不明,119.0324,33.5585
10G79,江苏,（无）,兴化,昭阳镇,江淮官话,洪巢片,系属不明,119.99166666666667,32.94166666666666
10078,江苏,淮安,金湖县,（无）,无,无,无,119.125,33.0
10080,江苏,无,靖江,东兴,无,无,无,120.28333333333333,32.03333333333333
10066,江苏,扬州,高邮市,高邮镇,无,无,无,119.525,32.858333333333334
10063,江苏,盐城,阜宁,阜城镇,无,无,无,119.70833333333334,33.70833333333333
10073,江苏,徐州市,贾汪区,老矿街道办事处,无,无,无,117.49166666666667,34.40833333333333
10079,江苏,常州市,金坛市,金城镇,无,无,无,119.628466,31.734082
10092,江苏,徐州,邳州市,无,无,无,无,117.875,34.391666666666666
10054,江苏,盐城,滨海,东坎镇,无,无,无,119.975,34.05
10067,江苏,连云港,灌南县,无,无,无,无,119.53888888888889,34.204166666666666
10068,江苏,连云港,灌云县,无,无,无,无,119.45819444444444,34.421527777777776
10114,江苏,淮安,盱眙,无,无,无,无,118.54,33.04
10084,江苏,南京,溧水,永阳镇,无,无,无,119.022649,31.668829
10103,江苏,徐州,睢宁县,（无）,无,无,无,117.84166666666667,33.916666666666664
10071,江苏,淮安,洪泽,无,无,无,无,118.91,33.32
10101,江苏,宿迁,泗阳县,无,无,无,无,118.54166666666666,33.675
10093,江苏,南京,浦口区,江浦街道,无,无,无,118.635156,32.066261
10105,江苏,泰州,泰兴,无,无,无,无,120.125,32.175
10075,江苏,扬州,江都,仙女镇,无,无,无,119.67500000000001,32.541666666666664
10057,江苏,淮安,楚州区,(无）,无,无,无,119.3,33.425
10098,江苏,宿迁,沭阳县,无,无,无,无,118.83333333333334,34.15
10117,江苏,镇江,扬中市,(无),无,无,无,119.8035,32.2429
10111,江苏,徐州,新沂市,无,无,无,无,118.359196,34.368737
10091,江苏,徐州,睢宁县,无,无,无,无,116.91666666666667,34.725
10074,江苏,盐城,建湖,近湖镇,无,无,无,119.81666666666666,33.474999999999994
10077,江苏,无,姜堰市,姜堰镇,无,无,无,120.05,32.516666666666666
10096,江苏,南通,如皋市,如城镇,无,无,无,120.41666666666666,32.25
10097,江苏,盐城,射阳县,合德镇,无,无,无,120.26666666666667,33.75833333333333
10082,江苏,镇江,句容,（无）,无,无,无,119.18,31.935000000000002
10058,江苏,盐城,大丰市,大中镇,无,无,无,120.575,33.266666666666666
10088,江苏,南京市,六合区,雄州街道,无,无,无,118.80833333333334,32.31666666666666
10099,江苏,南通,海门,四甲镇,无,无,无,121.3,31.958333333333332
10095,江苏,南通,如东县,掘港镇,无,无,无,121.03333333333333,32.400000000000006
10061,江苏,盐城,东台市,东台镇,无,无,无,120.575,32.833333333333336
10060,江苏,连云港,东海县,无,无,无,无,118.525,34.55833333333334
10119,江苏,扬州,仪征市,真州镇,无,无,无,119.19999999999999,32.41666666666667
32C89,香港,（无）,（无）,大埔,无,无,无,114.175564521304,22.4538143304
35H23,濒危方言,商洛市,商州区,牧护关镇,系属不明,系属不明,系属不明,109.28333333333333,33.71666666666667
35H21,濒危方言,安康市,汉滨区,牛蹄镇,系属不明,系属不明,系属不明,108.94166666666666,32.825
35H24,濒危方言,延安,宝塔区,南市,晋语,志延片,系属不明,109.69999999999999,36.666666666666664
35H25,濒危方言,德阳,中江,积金镇、广福镇,无,无,无,104.84166666666667,30.9
35H26,濒危方言,九江,武宁,新宁镇,无,无,无,114.96666666666667,29.233333333333334
35H29,濒危方言,衢州市,江山市,廿八都镇,系属不明,系属不明,系属不明,118.58333333333333,28.566666666666666
35H30,濒危方言,潼南区,（无）,龙形镇,系属不明,系属不明,系属不明,105.76680555555555,30.11680555555556
35H27,濒危方言,宁波,慈溪,观海卫,系属不明,系属不明,系属不明,121.36666666666667,30.21666666666667
35H22,濒危方言,咸阳,三原,城关镇,系属不明,系属不明,系属不明,108.9474465,34.62307895
35H28,濒危方言,丽水市,景宁畲族自治县,郑坑乡,系属不明,系属不明,系属不明,119.8208126403,27.987288
35H17,濒危方言,邵阳市,新宁县,麻林瑶族乡,无,无,无,113.88333333333333,26.583333333333336
35H14,濒危方言,鸡西,虎林,新乐乡,无,无,无,133.0676388888889,46.000972222222224
35H18,濒危方言,永州,新田,金陵镇,无,无,无,112.20833333333334,25.883333333333333
35H16,濒危方言,郴州,嘉禾,珠泉社区,中原官话,信蚌片,系属不明,112.41236111111111,25.61402777777778
35H20,濒危方言,成都,龙泉驿,十陵,无,无,无,104.28139696,30.56269784
35H12,濒危方言,东方,（无）,四更,中原官话,信蚌片,系属不明,108.85833333333332,19.008333333333333
35H19,濒危方言,苏州市,吴江区,松陵镇,中原官话,信蚌片,系属不明,120.35,31.04
35H15,濒危方言,吉首市,古丈县,河蓬乡,中原官话,信蚌片,系属不明,109.66666666666666,28.583333333333332
35H11,濒危方言,桂林,资源,瓜里乡,无,无,无,110.58333333333334,26.058333333333334
35H13,濒危方言,（无）,陵水黎族自治县,新村镇,中原官话,信蚌片,系属不明,109.94166666666666,18.575000000000003
35H08,濒危方言,韶关市,浈江区,新韶镇,邵州土话,邵州片,韶关土话,113.6667299,24.821291869
35H04,濒危方言,龙岩,武平,中山,闽方言,系属不明,系属不明,116.10833333333333,25.141666666666666
35H02,濒危方言,龙岩,永定,培丰镇,（系属不明）,（系属不明）,孔夫话,116.9,24.8
35H03,濒危方言,南平,延平区,（无）,闽方言,系属不明,系属不明,118.25,26.858333333333334
35H09,濒危方言,北海,合浦,山口,闽方言,系属不明,系属不明,109.30833333333334,21.683333333333334
35H10,濒危方言,桂林市,灵川县,灵川镇,闽方言,系属不明,系属不明,110.53333333333333,25.433333333333334
35H01,濒危方言,芜湖,南陵,三里镇,无,无,无,118.225,30.9
35H07,濒危方言,梅州,丰顺,潭江镇,无,无,无,116.725,23.983333333333334
35H06,濒危方言,清远市,连南瑶族自治县,寨岗镇,粤北濒危方言,粤语,粤语,112.2935172818,24.73154858
35H05,濒危方言,湛江,雷州,客路镇,粤北濒危方言,粤语,粤语,109.979825173,21.08397054
35406,濒危方言,黄山市,祁门县,安凌镇,无,无,无,117.575,29.858333333333334
35402,濒危方言,清远,连南,三江镇,无,无,无,112.25874999999999,24.610833333333332
35400,濒危方言,永州,道县,梅花镇,无,无,无,111.60833333333333,25.491666666666667
35410,濒危方言,怀化,通道侗族自治县,菁芜洲镇,无,无,无,109.725,26.175
35401,濒危方言,茂名,电白,林头,无,无,无,111.4,21.675
35409,濒危方言,贺州,钟山,回龙镇,无,无,无,111.24166666666667,24.525
35403,濒危方言,湘西苗族土家族自治州,泸溪,梁家潭乡,无,无,无,109.95,28.18333333333333
35404,濒危方言,永州,宁远,中和镇,无,无,无,111.98819444444445,25.666944444444447
35407,濒危方言,黔西南布依族苗族自治州,晴隆县,长流乡,无,无,无,105.21666666666667,25.866666666666667
35405,濒危方言,（无）,惠东,平海,无,无,无,114.99166666666667,22.941666666666666
35408,濒危方言,汕尾,海丰,鹅埠,无,无,无,115.337872,22.993955
03E85,北京,（无）,门头沟,桥东社区,北京官话,京师片,系属不明,116.11055844,39.9512065
03E82,北京,北京市,昌平区,南邵镇,北京官话,京师片,系属不明,116.298207745,40.221694
03E88,北京,（无）,西城,天桥街道,北京官话,京师小片,系属不明,116.39934357,39.887746569
03E83,北京,房山区,房山区,良乡镇,北京官话,京师小片,系属不明,116.1494437,39.75432583
03E86,北京,（无）,密云,鼓楼街道,北京官话,京师片,系属不明,116.8591742,40.377921565
03E87,北京,平谷区,平谷区,平谷镇,北京官话,京师片,系属不明,117.15833333333333,40.2
03E89,北京,北京,延庆县,延庆镇,北京官话,京师片,系属不明,115.96131857,40.4780954
03E84,北京,怀柔区,怀柔区,怀柔镇,北京官话区,京师片,系属不明,116.58806396,40.409765
04G89,上海,（无）,崇明,城桥镇,无,无,无,121.52916666666667,31.652083333333334
04G91,上海,上海,奉贤区,奉贤区南桥镇,无,无,无,121.55902777777777,30.967222222222222
04G88,上海,上海,宝山区,宝山区月浦镇,无,无,无,121.425015,31.4399443
04G90,上海,浦东新区,川沙镇,无,无,无,无,121.70241153333224,31.199078184570762
04G92,上海,上海,浦东新区,惠南镇,无,无,无,121.7791974,31.040219
04G97,上海,青浦区,（无）,盈浦街道办事处,无,无,无,121.08333333333334,31.125
04G95,上海,上海,上海,（无）,无,无,无,121.29,31.29
04G94,上海,金山区,（无）,朱泾镇,无,无,无,121.183665,30.892365
04G96,上海,市区,杨浦区,景星路,无,无,无,121.525247,31.261006
04G98,上海,（无）,松江,岳阳街道,无,无,无,121.14,31.0
04G99,上海,上海,闵行区,莘庄镇,无,无,无,121.44166666666666,31.091666666666665
04G93,上海,上海,嘉定区,公园街道办事处,无,无,无,121.38333333333333,31.40833333333333
05K05,辽宁,盘锦,（无）,（无）,东北官话区,哈阜片,长锦小片,121.96666666666667,41.05
05K04,辽宁,锦州,黑山,黑山,东北官话,哈阜片,长锦小片,122.20833333333333,41.80833333333334
05K01,辽宁,朝阳,北票,南山街道,东北官话,哈阜片,长锦小片,120.775,41.83333333333333
05K02,辽宁,本溪,（无）,河东街道,东北官话区,吉沈片,通溪小片,124.66666666666666,41.2
05K03,辽宁,铁岭,昌图,老城镇,东北官话,吉沈片,通溪小片,123.98333333333333,43.016666666666666
05D24,辽宁,锦州市,义县,义州镇,东北官话,哈阜片,长锦小片,121.24556854894828,41.53893886227117
05D22,辽宁,朝阳市,凌源市,南街街道,北京官话,朝峰片,系属不明,119.64166666666667,41.35
05D21,辽宁,鞍山,海城,海州,东北官话,吉沈片,通溪小片,122.71666666666667,40.83333333333333
05D23,辽宁,葫芦岛,绥中,绥中镇,东北官话,哈阜片,长锦小片,120.04166666666666,40.3
05D20,辽宁,大连,长海,大长山岛,胶辽官话区,登连片,烟威小片,122.720094,39.240886
05943,辽宁,阜新市,细河区,四合镇,东北官话,哈阜,蛟宁小片,121.975,41.891666666666666
05944,辽宁,营口,盖州,鼓楼街道办事处,胶辽官话,营通,盖桓,122.432483,40.39564
05945,辽宁,铁岭,开原市,新城街道,东北官话,吉沈片,通溪小片,124.25833333333333,42.49166666666667
05946,辽宁,大连,庄河,城关街道,胶辽官话,登连片,烟威小片,123.0,39.80833333333334
05297,辽宁,辽阳市,白塔区,站前街道办事处,无,无,无,123.175163099651,41.2792858168533
05298,辽宁,沈阳市,（无）,（无）,无,无,无,123.25,41.48
05296,辽宁,锦州市,（无）,（无）,无,无,无,121.147748738236,41.1308788759173
05294,辽宁,朝阳,建平,叶柏寿镇,无,无,无,119.6,41.31666666666666
05295,辽宁,丹东市,丹东市,（无）,无,无,无,124.3615,40.0064
05299,辽宁,葫芦岛市,兴城市,古城街道,无,无,无,120.46666666666667,40.55
05052,辽宁,大连,金州区,杏树街道,无,无,无,122.15,39.26
05051,辽宁,大连,市内四区,（无）,无,无,无,121.62163148459285,38.9189536667856
02G37,福建,福州,罗源县,凤山镇,闽,闽东,侯官,119.50833333333333,26.516666666666666
02G41,福建,莆田,城厢区（城关）、荔城区（城关）,城厢区霞林街道、凤凰山街道,闽语区,莆仙片,小片系属不明,119.05000000000001,25.375
02G33,福建,漳州市,长泰县,（无）,闽方言区,闽南片,泉漳小片,117.775,24.725
02G36,福建,漳州市,龙海市,石码镇,闽南,泉漳,漳州,117.85833333333333,24.391666666666666
02G40,福建,平潭,平潭综合实验区,潭城镇,闽方言区,闽东片,侯官小片,119.810279582434,25.5065431393579
02G35,福建,泉州,晋江,青阳街道,闽语区,闽南方言片,泉漳小片,118.55083333333334,24.709027777777777
02G46,福建,南平,松溪县,（无）,闽语区,闽北片,建瓯小片,118.73333333333333,27.625
02G52,福建,宁德,柘荣,双城镇,闽语,闽东,福宁,119.89166666666667,27.2
02G48,福建,南平,武夷山,武夷街道,闽语,闽北方言,武夷山话,117.97583333333333,27.769444444444446
02G50,福建,福州市,永泰县,樟城镇,闽,闽东,侯官,118.79166666666667,25.866666666666667
02G44,福建,三明,沙县,凤岗街道办事处,闽方言,闽中方言,沙县方言小片,117.81666666666666,26.391666666666666
02G42,福建,南平,浦城,南浦街道,吴语,处衢片,龙衢小片,118.5,27.925
02G51,福建,漳州市,芗城区,（无）,闽方言区,闽南片,泉漳小片,117.60055555555556,24.599305555555553
02G45,福建,泉州市,石狮市,湖滨、凤里街道,闽方言区,闽南方言片,泉漳小片,118.69166666666666,24.733333333333334
02G34,福建,福州,福清,玉屏街道,闽,闽东,侯官,119.35833333333333,25.583333333333336
02G43,福建,三明市,梅列区,列东、列西、徐碧,闽方言,闽中方言,梅列方言小片,117.64166666666667,26.34166666666667
02G38,福建,泉州市,南安市,溪美街道办事处,闽语区,闽南片,泉漳小片,118.36666666666667,24.933333333333334
02G39,福建,南平,延平,夏道镇,闽语,闽北片,建瓯小片,118.25,26.858333333333334
02G49,福建,厦门市,思明区,鼓浪屿、鹭江、开元、中华、厦港、筼筜、梧村、嘉莲、莲前、滨海街道,闽方言,闽南方言,泉漳片,118.13333333333333,24.45
02G47,福建,厦门市,同安区,大同街道及祥平街道,闽,闽南,泉漳,118.16083333333333,24.727916666666665
02A14,福建,三明,泰宁,杉城,赣语,抚广片,南城小片,117.14166666666668,26.85
02A05,福建,福州,鼓楼,（无）,闽语,闽东,侯官,119.290632,26.09787
02A04,福建,宁德,福鼎,沙埕镇,闽语,闽南方言,闽南方言岛,120.31666666666666,27.15
02A01,福建,福州,长乐,航城镇航城街道,北方方言岛,系属不明,系属不明,119.510618,25.964691
02A17,福建,三明市,永安市,燕南街道、燕西街道、曹远镇,闽方言,闽中方言,永安市区方言小片,117.35833333333333,25.875
02A15,福建,宁德,霞浦,三沙镇,闽语,闽南话,厦漳泉小片,120.213009,26.941075
02A08,福建,龙岩市,连城县,莲峰镇,客家,闽西,连城,116.773602,25.728142
02A09,福建,福州,罗源,（无）,不明,不明,不明,119.50833333333333,26.516666666666666
02A12,福建,南平,浦城,石陂镇,闽语,闽北方言,石陂方言,118.25,27.69166666666667
02A19,福建,漳州,诏安,官陂镇,客家话,汀州片,系属不明,117.14166666666667,23.96666666666667
02A07,福建,三明市,将乐县,城关古镛、水南等,闽语区,闽北片,闽赣过渡小片,117.375,26.75
02A16,福建,龙岩市,新罗区,大池镇,客家话,汀州片,小片系属不明,116.75,25.108333333333334
02A18,福建,南平,政和,（无）,闽语区,闽北片,建瓯小片,119.16666666666666,27.233333333333334
02A13,福建,宁德,寿宁,鳌阳镇,闽语,闽东区,福宁片,119.48333333333333,27.433333333333334
02A11,福建,漳州市,平和县,大溪镇,客家话,汀州片,平和小片,117.225,24.15833333333333
02A03,福建,三明,大田,广平,闽方言,闽南区,大田,117.836515,26.094458
02A06,福建,三明,建宁,濉溪镇,赣语,抚广片,无,116.775,26.81666666666667
02A10,福建,三明市,明溪县,雪峰镇,客家话区,闽西片,闽客赣过渡片,117.1,26.391666666666666
02A02,福建,三明市,大田县,城关,闽语,闽南话,大田前路,117.76819444444445,25.821527777777774
02540,福建,泉州,鲤城区,无,无,无,无,118.6,24.92
02541,福建,龙岩,新罗,（无）,无,无,无,117.0,25.183333333333334
02553,福建,龙岩市,长汀,汀州,无,无,无,116.325,25.666666666666668
02543,福建,南平,邵武,昭阳街道,无,无,无,117.501262992089,27.3422169899293
02545,福建,宁德,霞浦,松城、松港街道,无,无,无,120.0,26.89
02544,福建,南平,顺昌,双溪镇,无,无,无,117.86666666666667,26.924999999999997
02552,福建,福州,长乐,吴航镇,无,无,无,119.524441170424,25.9775884830257
02539,福建,宁德,蕉城,蕉北街道,无,无,无,119.24444444444444,26.738333333333333
02554,福建,漳州,诏安,南诏镇,无,无,无,117.185767522237,23.7202360376826
02548,福建,龙岩市,永定区,凤城镇,无,无,无,116.75,24.733333333333334
02550,福建,龙岩,漳平市,菁城,无,无,无,117.45833333333334,25.34166666666667
02551,福建,漳州,漳浦,绥安镇,无,无,无,117.71666666666667,24.03333333333333
02535,福建,福州,闽清,梅城镇,无,无,无,118.75833333333333,26.233333333333334
02547,福建,南平,延平区,（无）,无,无,无,118.25,26.858333333333334
02555,福建,宁德市,周宁县,（无）,无,无,无,119.29166666666666,27.1
02534,福建,泉州,安溪县,凤城镇，城厢镇,无,无,无,118.192085680758,25.0589551279731
02542,福建,漳州,平和,小溪镇,无,无,无,117.20833333333334,24.308333333333334
02538,福建,泉州,惠安,螺城,无,无,无,118.85833333333333,25.03333333333333
02537,福建,漳州,华安,（无）,无,无,无,117.53,25.0
02546,福建,莆田,仙游,鲤城,无,无,无,118.61666666666667,25.358333333333334
02549,福建,漳州,云霄,云陵,无,无,无,117.349826337555,23.9668735689463
02536,福建,南平,光泽,杭川镇,无,无,无,117.33333333333334,27.641666666666666
02139,福建,漳州市,芗城区,（无）,无,无,无,117.60055555555556,24.599305555555553
02132,福建,莆田,城厢区,凤凰山街道办事处,无,无,无,119.24166666666667,25.59166666666667
02135,福建,厦门,同安区,大同街道及祥平街道,无,无,无,118.16083333333333,24.727916666666665
02134,福建,厦门,思明区,下辖鼓浪屿、鹭江、中华、厦港、开元、筼筜、梧村、嘉莲、莲前、滨海等10 个街道办事处,无,无,无,118.13333333333333,24.45
02193,福建,南平市,建瓯,芝山街道,无,无,无,118.45833333333334,26.983333333333334
02197,福建,三明,清流,龙津镇,无,无,无,116.9,26.066666666666666
02194,福建,福州,连江,凤城镇,无,无,无,119.543379,26.215116
02199,福建,泉州,永春,桃城镇、五里街镇,无,无,无,118.1,25.383333333333333
02195,福建,福州,闽侯,甘蔗街道,无,无,无,119.13333333333333,26.200000000000003
02191,福建,宁德市,福安县,（无）,无,无,无,119.625,27.041666666666664
02190,福建,泉州,德化,浔中 龙浔,无,无,无,118.225,25.65833333333333
02198,福建,龙岩市,武平县,平川镇,无,无,无,116.11666666666667,25.133333333333333
02192,福建,宁德地区,古田县,城东、城西街道,无,无,无,118.96666666666667,26.575
02196,福建,三明,宁化,翠江镇,无,无,无,116.68333333333334,26.066666666666666
34801,西藏,拉萨市,城关区,（无）,无,无,无,91.145100352,29.658331252
33C88,澳门,（无）,澳门,新桥,无,无,无,113.55833333333334,22.15833333333333
15J10,广东,肇庆市,端州区,城东街道办、城西街道办,粤方言,罗广方言,勾漏片,112.475,23.133333333333333
15J14,广东,惠州,龙门,龙城街道,粤语,广府片,系属不明,114.11166666666668,23.64944444444444
15J09,广东,佛山市,高明区,明城镇,粤语,广府片,广佛小片,112.64166666666667,22.825
15J12,广东,河源,连平,元善,客家方言,粤中,系属不明,114.58333333333334,24.275
15J15,广东,云浮市,罗定县,罗城镇街道办,粤语,广府,系属不明,111.576480481,22.77429606
15J13,广东,清远,连州,连州,土话,粤北土话,连州土话,112.3835725888,24.786466
15J16,广东,韶关,仁化,丹霞街道办事处,客家方言,粤北片,系属不明,113.76666666666667,25.191666666666666
15J06,广东,肇庆,德庆,德城街道,粤方言区,勾漏片,系属不明,111.90833333333333,23.28333333333333
15J11,广东,江门,开平,赤坎镇,粤语,四邑,四邑,112.62875018,22.3256551
15J08,广东,梅州,丰顺,汤坑镇,客家方言,粤东片,兴华小片,116.247539733,23.81061027
15J07,广东,珠海,斗门,（无）,粤方言,四邑片,斗门小片,113.20833333333334,22.200000000000003
15F39,广东,汕头市,潮阳区,文光街道,闽南区,潮汕片,潮普小片,116.60468776,23.2579053
15401,广东,茂名,电白县,电城,闽语区,雷琼片,电白小片,111.19166666666666,21.675
15F52,广东,韶关,翁源,龙仙,客家方言,粤北片,系属未明,113.975,24.366666666666667
15F46,广东,清远市,连山壮族瑶族自治县,吉田镇,粤语,勾漏片,系属不明,112.09375,24.51388888888889
15F58,广东,云浮市,郁南县,都城街道,粤语,广府片,系属不明,111.625,23.058333333333334
15F57,广东,阳江市,阳春市,春城街道,粤方言区,高阳片,系属不明,111.70833333333334,22.258333333333333
15F48,广东,汕尾,陆河,河田镇,客家话,海陆片,系属不明,115.60833333333333,23.299999999999997
15F45,广东,湛江,雷州,市区,闽语,琼雷片,粤西小片,110.118053279,20.90873223
15F47,广东,河源市,龙川县,老隆镇,客家方言,粤中,惠河,115.32097222222222,24.316666666666666
15F54,广东,梅州,五华,水寨镇,客家话,粤台片,兴华小片,115.78890414,23.91942658
15F56,广东,梅州,兴宁,兴田、福兴、宁新,客家话,粤台片,梅惠小片,115.75,24.225
15F42,广东,茂名,化州,河西街道办事处,粤方言,吴化片,系属未明,110.636675593,21.65898957
15F49,广东,佛山市,南海区,桂城,粤语,广府,南海桂城,113.05,23.075
15F53,广东,湛江,吴川,梅菉镇,粤方言,高雷片,梅菉白话,110.71666666666667,21.45
15F51,广东,肇庆,四会市,城中,粤语,勾漏片,系属不明,112.64166666666667,23.433333333333334
15F38,广东,深圳,宝安,西乡,粤语,莞宝片,系属不明,113.89042744,22.5600329
15622,广东,肇庆市,怀集县,怀城镇,粤语区,勾漏片,系属不明,112.197275543,23.92019253
15F41,广东,江门市,恩平市,恩城街道办事处,粤方言区,四邑片,系属不明,112.26027777777779,22.202083333333334
15F44,广东,揭阳,揭西,河婆,客家方言,粤台片,龙华小片,115.89680555555555,23.500833333333333
15F55,广东,云浮,新兴,新城,粤方言,广府片,系属不明,112.23333333333333,22.6
15F50,广东,韶关,乳源瑶族自治县,桂头镇,土话,韶州片,韶州土话,113.2824313649,24.782333322
15989,广东,清远,阳山,阳城,粤方言,勾漏片,系属不明,112.68133,24.509485
15985,广东,佛山市,顺德区,大良街道,粤方言,广府片,系属不明,113.225,22.90833333333333
15980,广东,汕尾,陆丰,东海街道,闽方言区,闽南片,潮汕小片,115.81666666666666,22.95
15979,广东,深圳,坪山,坪山,客家方言,粤台片,梅惠小片,114.53333333333333,22.625
15982,广东,潮州,饶平县,黄冈镇,闽语区,闽南片,潮汕小片,117.029332,23.683645
15986,广东,珠海市,香洲区,前山街道,粤方言,广府片,香山小片,113.51974,22.28358
15972,广东,汕头,澄海区,（无）,闽南,粤东,潮汕,116.79166666666667,23.424999999999997
15978,广东,汕头市,金平区,东墩街道,闽方言,闽南方言,潮汕小片,116.64166666666667,23.391666666666666
15987,广东,韶关,新丰,丰城街道,客家话,粤台片,龙华小片,114.15,24.083333333333336
15991,广东,东莞,（无）,沙田镇,粤方言,广府片,系属不明,113.608214,22.907479
15975,广东,广州市,番禺区,市桥街,粤语,广府片,系属不明,113.4,22.916666666666664
15988,广东,江门,新会,会城,粤方言区,四邑片,系属不明,113.034751,22.38821506
15990,广东,韶关,乐昌,坪石,平话土话,韶州片,皈塘小片,113.20833333333333,25.233333333333334
15973,广东,湛江市,赤坎区,北桥街道,粤语,高阳片,湛江小片,110.34166666666667,21.275
15977,广东,揭阳,惠来,惠城镇,闽方言区,闽南片,潮汕小片,116.23333333333333,23.03333333333333
15981,广东,揭阳,普宁,流沙东街道,闽方言区,闽南片,潮汕小片,116.035,23.31222222222222
15974,广东,梅州,大埔,湖寮镇,客,粤台,兴华,116.67195,24.35147
15984,广东,韶关,始兴,太平镇,客家方言,粤北,系属不明,114.008217,25.037082
15976,广东,肇庆,广宁,南街镇,粤语,勾漏片,系属不明,112.475255,23.645376
15971,广东,惠州,博罗,罗阳,客家方言,粤台片,梅惠小片,114.29722222222222,23.393055555555556
15983,广东,佛山,三水区,西南街道,粤语,广府片,系属不明,112.9,23.266666666666666
15224,广东,肇庆市,封开县,江口镇,无,无,无,111.517342571296,23.4351697656846
15556,广东,潮州,湘桥区,太平街道,无,无,无,116.65833333333333,23.7
15557,广东,江门,台山,台城街道,无,无,无,113.12851219549718,23.02775875078891
15370,广东,汕头市,南澳县,后宅镇,无,无,无,117.031708333038,23.4239303021093
15235,广东,江门,台山,台城街道,无,无,无,112.8004,22.2579
15227,广东,汕尾市,海丰县,海城镇,无,无,无,115.25833333333333,22.925
15226,广东,茂名市,高州市,潘州街道办,无,无,无,110.918689,21.891253
15231,广东,广州市,荔湾区,（无）,无,无,无,113.20833333333334,23.09166666666667
15236,广东,阳江,江城,南恩街道,无,无,无,111.977009755873,21.8715173045187
15232,广东,湛江,廉江,廉城,无,无,无,110.125,21.666666666666668
15229,广东,惠州,惠城区,桥西、桥东,无,无,无,114.392186,23.069732
15230,广东,揭阳,榕城区,（无）,无,无,无,116.406018,23.530513
15233,广东,梅州,梅江区,西郊街道,无,无,无,116.40833333333333,24.016666666666666
15228,广东,河源,源城,上城,无,无,无,114.64416666666666,23.68625
15225,广东,清远,佛冈,（无）,无,无,无,113.53333333333333,23.883333333333333
15237,广东,广州,增城区,荔城街道,无,无,无,113.770023341941,23.3320258879634
15234,广东,韶关,南雄,雄州镇,无,无,无,114.33444444444444,25.185972222222226
15222,广东,广州,从化,街口,无,无,无,113.675,23.65
15238,广东,中山,石歧,石岐,无,无,无,113.38208333333333,22.534166666666668
15223,广东,东莞,（无）,莞城,无,无,无,113.764076369026,23.0414026566773
12D83,山西,临汾,蒲县,蒲城,晋语区,吕梁片,隰州小片,111.11666666666667,36.40833333333333
12D88,山西,长治,襄垣,古韩,晋语,上党片,长治小片,112.96666666666667,36.55833333333334
12D81,山西,吕梁,临县,临泉,晋语区,吕梁片,汾州小片,110.979125,37.945945
12D82,山西,运城,临猗,猗氏,中原官话,汾河片,解州小片,110.59166666666667,35.13333333333333
12D80,山西,吕梁,交口,水头,晋语,吕梁片,汾州小片,111.30833333333334,36.958333333333336
12D79,山西,临汾,侯马,新田,中原官话,汾河片,绛州小片,111.53333333333333,35.63333333333333
12D76,山西,忻州,保德,东关,晋语,五台片,片属未明,111.0925417,39.028336
12D77,山西,大同,新荣区,新荣,晋语,大包片,系属不明,113.19166666666666,40.25833333333333
12D86,山西,长治,屯留,麟绛,晋语,上党片,长治小片,112.75833333333333,36.358333333333334
12D89,山西,忻州,岢岚,岚漪,晋方言,五台片,系属不明,111.53333333333333,38.74166666666667
12D78,山西,吕梁,方山,圪洞,晋语,吕梁片,汾州小片,111.3,37.95
12D84,山西,晋城,沁水,端氏镇,晋语,上党,长治,112.35,35.233333333333334
12D85,山西,吕梁,石楼,灵泉,晋语,吕梁片,汾州小片,110.73333333333332,37.05833333333334
12D87,山西,运城,万荣,解店,中原官话,汾河片,解州小片,110.71277777777777,35.37847222222223
12A79,山西,长治,城区,常青,晋语,上党片,长治小片,113.1,36.16666666666667
12A94,山西,临汾,隰县,龙泉,晋语,吕梁片,隰县小片,111.08333333333334,36.70833333333333
12A95,山西,运城,稷山,稷峰,中原官话,汾河片,绛州小片,110.94166666666666,35.58333333333333
12A81,山西,忻州,河曲,文笔,晋语区,五台片,系属不明,111.38333333333333,39.166666666666664
12A87,山西,长治,沁源,沁河,晋语,上党片,长治小片,112.351507,36.481514
12A93,山西,临汾,翼城,唐兴,中原官话,汾河片,平阳小片,111.80833333333334,35.625
12A80,山西,忻州,繁峙,繁城,晋语,五台片,系属不明,113.55833333333334,39.208333333333336
12A86,山西,长治,沁源,法中,中原官话,郑曹片,系属不明,112.25,36.66666666666667
12A90,山西,晋中,昔阳,乐平,晋语,大包,系属不明,113.616077,37.615575
12A83,山西,吕梁,离石,莲花池街道,晋语,吕梁片,汾州小片,111.25,37.525000000000006
12A92,山西,忻州,忻府区,新建路派出所,晋语,五台片,系属不明,112.61666666666667,38.43333333333334
12A85,山西,忻州市,偏关县,新关镇,晋语,五台片,系属不明,111.675,39.43333333333334
12A89,山西,忻州,五寨,砚台,晋语,五台片,系属不明,111.73333333333333,38.99166666666667
12A88,山西,吕梁,文水,凤城镇,晋语,并州片,系属不明,111.9,37.41666666666667
12A82,山西,晋中,介休,西南街道办事处,晋语区,并州片,系属不明,111.892853,37.020866
12A91,山西,运城,新绛,龙兴镇,中原官话,汾河片,绛州小片,111.15833333333333,35.70833333333333
12A84,山西,运城,临猗,七级,胶辽官话,青州片,系属不明,110.59166666666667,35.13333333333333
12267,山西,运城市,芮城县,古魏镇,无,无,无,110.65,34.7
12263,山西,晋城,陵川,崇文,无,无,无,113.343386598627,35.6907438979186
12268,山西,忻州市,神池县,龙泉镇,无,无,无,112.218988466734,39.0970695294222
12273,山西,临汾市,洪洞县,赵城镇,无,无,无,111.61666666666666,36.38333333333333
12271,山西,太原,阳曲,黄寨镇,无,无,无,112.637014,38.069215
12261,山西,朔州,怀仁,云中镇,无,无,无,113.112304623432,39.7935708360324
12265,山西,（无）,祁县,昭馀镇；城关,无,无,无,112.42652777777778,37.26819444444445
12262,山西,大同市,灵丘县,武灵镇,无,无,无,114.21666666666667,39.575
12275,山西,大同市,左云,云兴镇,无,无,无,112.730596952542,40.0293222862962
12266,山西,长治市,沁县,定昌镇,无,无,无,112.68333333333334,36.70833333333333
12260,山西,忻州市,定襄,晋昌镇,无,无,无,113.00833333333333,38.5
12264,山西,忻州,宁武,凤凰镇,无,无,无,112.34225,38.990215
12269,山西,晋中市,寿阳县,朝阳镇,无,无,无,113.11666666666667,37.80833333333334
12272,山西,运城市,垣曲县,新城镇,无,无,无,111.84166666666667,35.325
12270,山西,临汾市,乡宁县,昌宁镇,无,无,无,110.944128414044,35.9251191793775
12274,山西,吕梁,中阳,宁乡,无,无,无,111.15833333333333,37.266666666666666
12179,山西,长治,长子,丹朱镇,无,无,无,112.725,36.06666666666666
12171,山西,大同市,广灵县,壶泉镇,无,无,无,114.125,39.75
12174,山西,长治,平顺,青羊,无,无,无,113.45833333333334,36.19166666666666
12177,山西,太原市,小店区,小店街道办事处,无,无,无,112.55833333333334,37.708333333333336
12173,山西,吕梁,柳林,柳林镇,无,无,无,110.86666666666667,37.375
12175,山西,晋中,平遥,古陶镇,无,无,无,112.35833333333333,37.275000000000006
12176,山西,（无）,太谷县,明星镇,无,无,无,112.74166666666667,37.36666666666667
12178,山西,吕梁市,孝义市,中阳楼街道办事处,无,无,无,111.64166666666667,37.11666666666666
12170,山西,大同市,大同县,西坪镇水头乡,无,无,无,113.625,39.99166666666667
12172,山西,临汾市,尧都区,乡贤街道办,无,无,无,111.46666666666667,36.16666666666667
24J29,河南,郑州市,金水区,（无）,中原官话,郑开片,系属不明,113.66644773,34.8060704
24J26,河南,三门峡,灵宝,涧西区管委会,中原官话,关中片,系属不明,110.900408312,34.52314262
24J25,河南,濮阳市,范县,城关镇,中原官话,兖荷片,系属不明,115.46,35.87
24J24,河南,南阳市,邓州市,城关镇,中原官话,南鲁片,系数不明,112.0934201,32.6939174
24J23,河南,周口市,郸城县,城关镇,中原官话,商阜片,系属不明,115.1834776,33.650827
24J28,河南,南阳市,西峡县,城关镇,中原官话,南鲁片,系属不明,111.48039809,33.3133161
24J27,河南,三门峡市,湖滨区,会兴街道,中原官话,关中片,系属不明,111.26666666666668,34.75
24G01,河南,安阳,文峰区,（无）,晋语,邯新片,磁彰小片,114.36337398772,36.09683274813
24G06,河南,驻马店,泌阳,古城街道办事处,中原官话,南鲁片,系属不明,113.333557988,32.729730650434
24G05,河南,洛阳,洛宁,城关镇,中原官话,洛嵩片,系属不明,111.475,34.358333333333334
24G11,河南,漯河市,郾城区,城关镇,中原官话,漯项片,系属不明,113.925,33.650000000000006
24G04,河南,平顶山,鲁山,鲁阳街道办事处,中原官话,郑汴片,系属不明,112.73333333333333,33.78333333333333
24G03,河南,信阳市,固始县,蓼城街道办事处,中原官话,信蚌片,系属不明,115.64166666666667,32.175
24G10,河南,周口,川汇区,七一路街道办事处,中原官话,漯项片,系数不明,114.6576017405,33.652997102
24G08,河南,焦作市,沁阳市,怀庆办事处,晋语,邯新片,获济小片,112.9,35.141666666666666
24G12,河南,濮阳市,濮阳县,（无）,中原官话,郑开片,系属不明,115.07352851033,35.7113243117
24G09,河南,许昌市,魏都区,（无）,中原官话,南鲁片,系属不明,113.829595643,34.03086122
24G02,河南,许昌市,长葛,老城镇,中原官话,南鲁片,系属不明,113.85,34.24166666666667
24G07,河南,南阳市,宛城区,（无）,中原官话,南鲁片,系属不明,112.39166666666667,33.041666666666664
24C64,河南,焦作市,温县,温泉镇,晋语,邯新片,获济小片,113.04152777777779,34.95666666666666
24C58,河南,（无）,长垣,蒲东街道,中原官话,郑开片,方言系属不明,114.73333333333333,35.18333333333334
24C60,河南,济源市,（无）,城关镇,晋语,邯新片,获济小片,112.38333333333333,35.075
24C68,河南,驻马店市,驿城区,刘阁街道办事处,中原官话,漯项片,系属不明,114.01666666666667,32.96666666666667
24C59,河南,鹤壁市,鹤山区,鹤壁集镇,晋语,邯新片,获济小片,114.075,35.95833333333333
24C61,河南,鹤壁,浚县,卫溪,中原官话,郑开片,系属不明,114.50055555555556,35.64055555555555
24C66,河南,信阳市,浉河区,民权街道,中原官话,信蚌片,系属不明,113.91666666666667,31.974999999999998
24C62,河南,洛阳,老城区,南关,中原官话,洛嵩片,系属不明,112.41666666666666,34.68333333333334
24C67,河南,（无）,永城,城关镇,中原官话,商阜片,系属不明,116.30833333333334,34.0
24C63,河南,商丘市,梁园区,（无）,中原官话,商阜片,系属不明,115.65,34.3
24C65,河南,焦作,武陟,圪垱店乡,晋语,邯新片,获济小片,113.41666666666667,35.05833333333334
24378,河南,（无）,兰考,城北社区,无,无,无,114.96666666666667,34.891666666666666
24380,河南,新乡,卫滨区,平原镇,无,无,无,113.843,35.2725
24379,河南,安阳市,林州市,城关镇,无,无,无,113.861659,36.019831
24377,河南,开封市,鼓楼区,相国寺街道办事处,无,无,无,114.35,34.8
23J21,海南,儋州,（无）,南丰镇,客家话,不分片的客家地区,海南儋州,109.59243535,19.4015813421
23J22,海南,儋州,（无）,（无）,粤方言,琼文,儋州,109.34,19.31
23J17,海南,（无）,澄迈,金江镇,闽语区,海南琼文片,府城小片,110.04047702,19.73373758
23J18,海南,（无）,东方市,八所镇,官话,西南官话,海南军话,108.65856652,19.10110473
23J19,海南,海口市,美兰区,灵山镇,闽语区,海南琼文片,府城小片,110.434800292,20.0027655
23J20,海南,三亚市,崖州区,（无）,迈话,崖城,拱北、大蛋,109.183667849,18.428788045
23D67,海南,三亚市,崖州区,（无）,闽语,琼文片,崖县小片,109.20374,18.450118
23D69,海南,（无）,五指山,通什,闽方言,琼文,崖州,109.525,18.833333333333336
23D65,海南,（无）,定安,定城镇,闽语,琼文片,府城小片,110.31666666666666,19.475
23D68,海南,（无）,屯昌,屯城镇,闽语,琼文片,海府,109.96666666666667,19.358333333333334
23D66,海南,（无）,乐东黎族自治县,黄流镇,闽语区,琼文片,崖县小片,109.1,18.45
23C56,海南,三亚市,崖州区,（无）,官话,系属不明,系属不明,109.36666666666667,18.383333333333333
23C85,海南,（无）,琼海市,无,闽语,琼文片,文昌小片,110.414359,19.21483
23C84,海南,（无）,东方市,八所镇,闽语区,海南片,昌感小片,108.85833333333332,19.008333333333333
23C55,海南,海口,龙华区,中山,闽语区,琼文片,北部西小片（旧称府城片）,110.42500000000001,19.808333333333334
23C57,海南,（无）,万宁,无,闽语,琼文片,万宁小片,110.17,18.705
23376,海南,（无）,文昌,（无）,无,无,无,110.75833333333333,19.683333333333334
22D70,吉林,白城市,大安市,慧阳街,东北官话,哈阜片,肇扶小片,124.29850428,45.5130451
22D74,吉林,长春代管,榆树,正阳,东北官话,哈阜片,长锦小片,126.5573611111111,44.88319444444444
22D75,吉林,延边自治州,珲春市,靖和,东北官话区,吉沈片,延吉小片,130.373476,42.861114
22D73,吉林,通化,（无）,东昌区,东北官话区,吉沈片,通溪小片,125.975,41.675
22D71,吉林,通化市,集安市,团结街,胶辽官话,盖桓片,系属不明,126.06263888888888,41.22847222222222
22D72,吉林,白山市,临江市,（无）,胶辽官话,盖桓片,系属不明,126.80291666666666,41.76319444444445
22596,吉林,延边朝鲜族自治州,敦化市,胜利街,东北官话,吉沈片,蛟宁小片,128.375,43.6
22599,吉林,松原市,宁江区,沿江街道,东北方言,哈阜片,肇扶小片,124.84166666666667,45.30833333333334
22598,吉林,辽源市,龙山区,（无）,东北官话,哈阜片,长锦小片,125.38333333333333,42.775
22597,吉林,白山市,浑江区,（无）,胶辽官话,盖桓片,系属不明,126.396642,41.7916422
22365,吉林,长春,南关区,（无）,无,无,无,125.392053,43.786363
22363,吉林,吉林,龙潭,（无）,无,无,无,126.556495,43.918969
22364,吉林,白城,洮南,（无）,无,无,无,122.48333333333333,45.525
22362,吉林,四平,梨树,（无）,无,无,无,124.31666666666666,43.4
25D15,黑龙江,双鸭山,集贤,集贤,东北官话,黑松片,佳富小片,131.44166666666666,46.775000000000006
25D17,黑龙江,绥化市,兰西县,兰西镇,东北官话区,黑松片,嫩克小片,126.213542,46.3583501
25D12,黑龙江,七台河,勃利,勃利镇,东北官话,黑松片,佳富小片,130.549225782,45.70761422
25D16,黑龙江,伊春,嘉荫,朝阳镇,东北官话,黑松片,嫩克小片,129.99166666666667,48.78333333333333
25D18,黑龙江,牡丹江,穆棱,八面通,东北官话,吉沈片,蛟宁小片,130.35833333333335,44.46666666666667
25D19,黑龙江,大庆市,肇州县,肇州镇,东北官话,哈阜片,肇扶小片,125.3,45.925
25D14,黑龙江,鸡西市,鸡冠区,红星乡,东北方言,吉沈片,蛟宁小片,130.74083333333334,45.217638888888885
25D13,黑龙江,牡丹江市,东宁市,东宁镇,东北官话区,沈吉片,蛟宁小片,130.22500000000002,44.108333333333334
25592,黑龙江,大兴安岭,漠河,北极镇,东北官话,黑松片,嫩克小片,122.725,52.858333333333334
25593,黑龙江,黑河,嫩江,嫩江镇兴农街,东北官话区,黑松片,嫩克小片,125.415037,49.253912
25595,黑龙江,佳木斯,同江,同江镇,东北官话,黑松片,佳富小片,133.20833333333334,47.849999999999994
25590,黑龙江,佳木斯,前进区,站前街道,东北官话,黑松片,佳富小片,130.28333333333336,46.69166666666666
25589,黑龙江,黑河市,爱辉区,瑷珲镇,东北官话,黑松片,嫩克小片,127.57499999999999,50.18333333333334
25594,黑龙江,牡丹江市,宁安市,宁安镇,东北官话区,沈吉片,蛟宁小片,129.2153171,44.058017
25591,黑龙江,鸡西,密山,当壁镇,东北官话（东区）,黑松,佳富,131.778844,45.502956
25382,黑龙江,牡丹江,林口,林口镇,无,无,无,130.01666666666665,45.31666666666666
25385,黑龙江,绥化,肇东,（无）,无,无,无,125.86666666666666,45.75
25384,黑龙江,齐齐哈尔,泰来,泰来,无,无,无,123.479859,46.60329
25381,黑龙江,哈尔滨市,道外区,（无）,无,无,无,126.785226,45.804735
25383,黑龙江,哈尔滨,尚志,尚志,无,无,无,128.24166666666667,45.025000000000006
13C81,重庆,（无）,江北区,石马河街道办事处,北方方言,西南方言,重庆方言,106.66736111111112,29.618194444444445
13C82,重庆,（无）,秀山,（无）,西南官话,川黔片,成渝小片,109.01722222222222,28.523333333333333
13C42,重庆,（无）,南岸区,弹子石、龙门浩、南坪,西南官话区,川黔片,成渝小片,106.678677,29.50531
13C45,重庆,（无）,石柱土家族自治县,南宾街道,北方方言西南官话,川黔片,成渝小片,108.275,30.09166666666667
13C48,重庆,璧山区,（无）,城关镇（璧城街道）,西南官话区,川黔片,成渝小片,106.198322,29.573252
13C47,重庆,（无）,酉阳,钟多街道,西南官话区,川黔片,成渝小片,108.80833333333334,28.858333333333334
13C43,重庆,（无）,彭水,汉葭镇,西南官话,川黔片,成渝小片,108.19166666666666,29.391666666666666
13C46,重庆,（无）,万盛,无,西南方言,重庆方言,万盛方言,105.91,29.38
13C41,重庆,（无）,九龙坡区,石桥铺街道、中梁山街道,北方方言,西南方言,成渝片,106.41666666666666,29.416666666666664
13C44,重庆,（无）,荣昌区,盘龙镇,西南方言,重庆方言,客家话,105.465112,29.483377
13375,重庆,（无）,巫溪,宁河街道（原城厢镇）,无,无,无,109.35,31.483333333333334
13334,重庆,（无）,荣昌,县城,无,无,无,105.50833333333333,29.46666666666667
13341,重庆,（无）,长寿区,凤城街道,无,无,无,107.072818391565,29.8306298819711
13336,重庆,（无）,铜梁区,巴川街道办事处,无,无,无,106.01666666666667,29.799999999999997
13339,重庆,（无）,渝北区,两路镇,无,无,无,106.71222222222224,29.85097222222222
13337,重庆,潼南区,（无）,梓潼街道,无,无,无,105.76680555555555,30.11680555555556
13331,重庆,（无）,梁平区,（无）,无,无,无,107.74166666666667,30.65
13335,重庆,（无）,沙坪坝,磁器口,无,无,无,106.375,29.608333333333334
13333,重庆,（无）,綦江区,（无）,无,无,无,106.679237445964,28.8761398352796
13338,重庆,（无）,武隆县,巷口镇,无,无,无,107.65,29.35
13342,重庆,重庆市,忠县,忠州街道,无,无,无,107.921738140896,30.3420032583736
13329,重庆,（无）,奉节县,夔门街道、永安街道,无,无,无,109.38333333333333,30.925
13326,重庆,大足,（无）,棠香街道办事处,无,无,无,105.718213,29.708946
13330,重庆,（无）,开州区,汉丰街道、云枫街道,无,无,无,108.415,31.258333333333333
13325,重庆,（无）,大渡口区,（无）,无,无,无,106.463597,29.441252
13332,重庆,（无）,南川,东城街道,无,无,无,107.17500000000001,29.133333333333333
13340,重庆,（无）,云阳,双江街道和青龙街道,无,无,无,108.711146983426,30.942121944726
13324,重庆,（无）,北碚,朝阳街道,无,无,无,106.446895,29.838643
13327,重庆,（无）,垫江县,桂溪镇,无,无,无,107.355625690794,30.3369090695717
13328,重庆,（无）,丰都县,三合镇（新县城）,无,无,无,107.83333333333334,29.90833333333333
13185,重庆,（无）,黔江区,城东、城南、城西,无,无,无,108.7,29.46666666666667
13188,重庆,（无）,永川,中山路街道办事处,无,无,无,105.85833333333333,29.25
13189,重庆,（无）,渝中区,（无）,无,无,无,106.567535,29.566613
13184,重庆,江津,无,几江街道,无,无,无,106.263692,29.290794
13181,重庆,（无）,城口,葛城镇,无,无,无,108.75833333333333,31.908333333333335
13180,重庆,（无）,巴南区,鱼洞街道办事处,无,无,无,106.53472222222223,29.455416666666665
13182,重庆,涪陵,（无）,（无）,无,无,无,107.325,29.683333333333334
13187,重庆,（无）,巫山县,巫峡镇,无,无,无,109.930791,31.092089
13183,重庆,（无）,合川区,合阳城街道,无,无,无,106.27476,29.982673
13186,重庆,（无）,万州区,高笋塘,无,无,无,108.4,30.816666666666666
14E66,甘肃,酒泉市,肃州区,（无）,兰银官话,河西片,系属不明,98.51432185303,39.7512455099
14E67,甘肃,陇南市,礼县,城关镇,中原官话,秦陇片,陇南小片,105.10833333333332,34.05
14E69,甘肃,金昌市,永昌县,城关镇,兰银官话,河西片,武威小片,101.89166666666667,38.21666666666667
14E64,甘肃,酒泉市,敦煌市,沙州镇,中原官话,南疆片,未定,94.671306992061,40.1444904
14E65,甘肃,甘南州,合作市,坚木克尔,中原官话,陇中片,河州小片,102.91757157299,35.00593542819
14E63,甘肃,定西市,安定区,凤翔镇,中原官话,陇中片,洮河流域小片,104.60833333333333,35.65833333333333
14E68,甘肃,庆阳市,庆城县,庆城镇,中原官话,秦陇片,庆阳小片,107.68625,35.99875
14A64,甘肃,张掖市,甘州区,西街街道,兰银官话,河西片,张掖小片,100.48333333333332,38.96666666666667
14A73,甘肃,兰州,榆中,城关镇,兰银官话区,金城片,榆中方言小片,104.19166666666666,36.0
14A69,甘肃,武威市,凉州区,西大街,兰银官话,河西,武威,102.68333333333334,37.79166666666667
14A72,甘肃,临夏,永靖,刘家峡镇,中原官话,河州片,永靖小片,103.26666666666668,35.99166666666667
14A70,甘肃,定西市,临洮县,洮阳镇,中原官话,陇中片,洮河流域小片,103.897067,35.409732
14A68,甘肃,陇南市,康县,城关镇,中原官话,秦陇片,西汉水流域小片,105.63333333333333,33.266666666666666
14A71,甘肃,天水市,清水县,永清镇,中原官话,陇中片,渭河流域小片,106.125,34.733333333333334
14A65,甘肃,兰州市,红古区,海石湾镇,兰银官话,金城片,红古小片,102.86666666666667,36.333333333333336
14A67,甘肃,白银,靖远,乌兰镇,中原官话,秦陇片,陇东小片,104.73333333333333,36.625
14A66,甘肃,白银市,会宁县,会师镇,中原官话,陇中片,渭河流域,104.80000000000001,35.75
14221,甘肃,兰州,永登,（无）,无,无,无,103.15,36.44
14215,甘肃,定西,陇西,巩昌镇,无,无,无,104.6,35.108333333333334
14216,甘肃,庆阳市,宁县,新宁镇,无,无,无,108.125,35.55833333333334
14220,甘肃,陇南,武都区,（无）,无,无,无,105.1,33.24166666666667
14217,甘肃,平凉市,崆峒区,（无）,无,无,无,106.88333333333333,35.475
14420,甘肃,陇南市,文县,城关镇,无,无,无,104.85833333333333,32.96666666666667
14218,甘肃,天水市,秦州区,中城街道办事处,无,无,无,105.34,34.2
14213,甘肃,甘南藏族自治州,临潭,城关镇,无,无,无,103.51666666666667,34.79166666666667
14212,甘肃,兰州市,城关区,临夏路街道办事处,无,无,无,103.851571162583,36.0540081315666
14214,甘肃,临夏州,临夏市,东区街道办事处,无,无,无,103.11666666666667,35.44166666666666
09J93,云南,大理白族自治州,鹤庆县,云鹤镇,西南官话区,云南片,滇西小片,100.25,26.325
09J97,云南,文山壮族苗族自治州,富宁县,归朝,平话,桂南平话,西南小片,105.70833333333334,23.666666666666664
09J98,云南,文山,文山,开化,西南官话区,云南方言片,滇南小片,104.08333333333334,23.416666666666668
09J00,云南,曲靖市,沾益区,西平镇,北方方言,西南官话,滇中小片,103.82848532,25.6066307988
09J95,云南,红河哈尼族彝族自治州,河口瑶族自治县,河口镇,粤方言,钦廉次方言,系属不明,103.86008689,22.6362759572
09J92,云南,楚雄州,大姚县,金碧镇,西南官话区,云南片,滇中小片,101.3003111433,25.69761168
09J94,云南,红河哈尼族彝族自治州,河口瑶族自治县,河口农场,赣语,系属不明,系属不明,103.962651029,22.5165192157
09J99,云南,西双版纳傣族自治州,景洪市,勐罕镇,湘方言,永全片,东祁小片,101.01666666666667,21.825
09J96,云南,临沧,临翔,凤翔,西南官话区,云南片,滇西小片,100.125,23.875
09D95,云南,（无）,昭通市,镇雄,云南方言西南官话,川黔,成渝,104.880404224,27.447794634
09D93,云南,普洱市,思茅区,思茅镇,西南官话区,云南片,滇中小片,100.88333333333333,22.775
09D91,云南,西双版纳傣族自治州,景洪市,允景洪,西南官话区,云南片,滇中小片,100.96666666666667,22.025
09D94,云南,昭通,永善,溪洛渡镇,北方方言区,西南官话区川黔片,成渝小片,103.63860977,28.2381588978
09D90,云南,玉溪,通海,河西镇,西南官话,滇中片,玉溪小片,102.68833333333333,24.083333333333336
09619,云南,德宏州,芒市,勐焕街道办事处,西南官话,云南片,滇西小片,98.5976683353697,24.4440300337958
09A74,云南,楚雄彝族自治州,楚雄市,鹿城镇,西南官话区,昆贵片,系属不明,101.19166666666666,24.875
09A75,云南,保山,隆阳区,永昌街道办事处,北方方言,西南官话,滇西小片,99.075,25.2
09A78,云南,玉溪,红塔区,玉兴、玉带,西南官话,滇中方言片,系属不明,102.48333333333333,24.333333333333336
09A77,云南,丽江,永胜,永北,西南官话区,云南片,滇中小片,100.79166666666667,26.53333333333333
09A76,云南,昆明,寻甸,仁德,北方方言区,西南官话片,昆贵小片,103.11666666666667,25.674999999999997
09369,云南,曲靖,罗平,罗雄镇,无,无,无,104.33333333333334,24.96666666666667
09368,云南,昆明,（无）,（无）,无,无,无,102.71460113878,25.0491531004531
09366,云南,文山壮族苗族自治州,广南,莲城,无,无,无,105.08333333333334,24.141666666666666
09367,云南,红河哈尼族彝族自治州,建水县,临安镇,无,无,无,102.818254,23.719281
09615,云南,大理市,下关镇,关迤社区,无,无,无,99.95833333333333,25.691666666666666
31N06,新疆,吐鲁番市,（无）,绿洲西路,中原官话,南疆片,吐鲁番方言,88.99166666666667,42.458333333333336
31N05,新疆,巴音郭楞蒙古自治州,焉耆回族自治县,焉耆镇,中原官话,新疆中原官话南疆片,焉耆,85.975,42.04166666666667
31N03,新疆,昌吉回族自治州,玛纳斯县,城镇,西北方言,兰银官话北疆片,系属不明,86.25833333333333,44.36666666666666
31N04,新疆,塔城地区,塔城市,城镇,西北方言,兰银官话北疆片,系属不明,84.80833333333334,45.33333333333333
31C91,新疆,乌鲁木齐市,乌鲁木齐县,板房沟镇,无,无,无,87.331518605293,43.344853023
31C86,新疆,哈密市,巴里坤哈萨克自治县,城镇,官话区,兰银官话北疆片,系属不明,93.0229309535639,43.6056887707873
31C87,新疆,（昌吉回族自治州）,奇台,东大街三清宫社区,兰银官话,北疆片,系属不明,89.6010808117238,44.026897819017
31C92,新疆,（无）,新疆生产建设兵团农八师石河子市,148团场西营镇,北京官话区,幽燕片,北疆小片,86.08688567193,44.311976478
07J36,湖北,襄阳,枣阳,北城街道办事处,西南官话,鄂北片,枣阳话,112.75,32.166666666666664
07J31,湖北,黄冈市,罗田县,凤山镇,江淮官话,黄孝片,罗田,115.43333333333334,30.924999999999997
07J34,湖北,孝感市,应城市,城中办事处,江淮官话,黄孝片,孝感小片,113.53333333333333,30.924999999999997
07J32,湖北,（无）,潜江,园林街道,西南官话,湖广片,鄂中小片,112.75,30.358333333333334
07J30,湖北,襄阳,谷城,城关,西南官话,鄂北片,湖广小片,111.6595756,32.268983
07J33,湖北,荆州,松滋,新江口,北方官话,西南官话,常鹤片,111.780455044,30.17437515
07J35,湖北,孝感,云梦,城关镇黄香大道,江淮官话,黄孝片,云梦小片,113.7594122,31.02721822
07F40,湖北,孝感市,广水市,应山办事处,江淮官话,黄孝片,孝感小片,113.81666666666666,31.733333333333334
07D26,湖北,宜昌市,长阳土家族自治县,龙舟坪镇,西南官话区,成渝片,鄂西小片,110.655,30.483333333333334
07D34,湖北,随州,曾都区,东城街道办事处,西南官话,鄂北片,系属未明,113.349248,31.738773
07D29,湖北,恩施,鹤峰,容美镇,西南官话,成渝片,系属不明,110.19166666666666,29.85
07D31,湖北,武汉市,黄陂区,前川街道,江淮官话,黄孝片,孝感小片,114.38333333333333,31.016666666666666
07D38,湖北,宜昌市,兴山,昭君镇,西南官话区,成渝片,鄂西小片,110.83333333333334,31.189999999999998
07D37,湖北,恩施州,咸丰县,高乐山镇,西南官话区,成渝片,鄂中小片,108.975,29.675
07D32,湖北,咸宁,嘉鱼,鱼岳,赣语,大通片,系属不明,114.00833333333333,30.058333333333334
07D35,湖北,天门,（无）,竟陵,西南官话,武天片,系属不明,112.99166666666667,30.616666666666667
07D27,湖北,咸宁,崇阳,天城,赣语区,大通片,系属不明,114.03333333333333,29.441666666666666
07D25,湖北,恩施,巴东,信陵镇,西南官话,成渝片,鄂中小片,110.3,30.841666666666665
07D30,湖北,黄冈,红安,城关镇,江淮官话,黄孝片,鄂东小片,114.581001,31.302897
07D39,湖北,黄冈市,英山县,温泉镇,江淮,黄孝,鄂东,115.57986111111111,30.833055555555553
07D33,湖北,荆门,东宝,龙泉街道,西南官话,成渝片,系属不明,112.187224,31.031429
07D36,湖北,咸宁,通城,隽水镇,赣语,大通片,系属不明,113.83333333333333,29.21666666666667
07D28,湖北,荆州,公安,斗湖堤镇,西南官话,湖广片,湘北小片,112.10833333333333,29.96666666666667
07917,湖北,黄石市,阳新县,兴国镇,赣语,大通片,大通片,115.140492,29.82808
07907,湖北,黄冈市,黄梅县,人民大道,北方方言,江淮官话,黄孝片,115.91666666666666,30.008333333333333
07911,湖北,荆州,沙市,崇文,北方官话,北京官话,荆州方言岛（濒危汉语方言·荆州西边腔）,112.66666666666666,30.525
07903,湖北,黄石市,大冶市,东岳街道办事处,赣语,大通片,大通片,114.925,29.958333333333336
07919,湖北,宜昌市,宜都市,陆城街道办事处,西南官话,成渝片,鄂西小片,111.391056,30.343802
07914,湖北,武汉,江汉,（无）,西南官话,湖广片,鄂中小片,114.25833333333333,30.608333333333334
07905,湖北,孝感市,汉川,仙女山街道办事处,西南官话,武天片,汉川,113.65833333333333,30.608333333333334
07900,湖北,孝感市,安陆,北城办事处,江淮官话,黄孝片,系属不明,113.63333333333333,31.275
07908,湖北,荆州,监利,容城镇,赣方言,大通片,系属不明,112.94999999999999,29.816666666666666
07909,湖北,恩施土家族苗族自治州,建始,业州镇,西南官话,成渝片,系属未明,109.86666666666667,30.5
07912,湖北,神农架林区,（无）,松柏镇,西南官话,湖广片,鄂北小片,110.45,31.75
07921,湖北,十堰市,竹溪县,城关镇,西南官话,湖广片,鄂北小片,109.80833333333334,32.025
07915,湖北,宜昌市,五峰土家族自治县,渔洋关镇,西南官话,成渝片,鄂西小片,110.83333333333334,30.18263888888889
07916,湖北,仙桃,（无）,干河,西南官话,武天片,沔阳话,113.36666666666667,30.3
07904,湖北,恩施,恩施,舞阳坝,西南官话,成渝片,鄂中小片,109.52333333333334,30.25
07910,湖北,武汉,江夏区,纸坊,西南官话,湖广片,鄂中小片,114.363632,30.371956
07902,湖北,咸宁市,赤壁市,蒲圻、赤马港、陆水湖风景区,赣方言,大通片,赤壁,113.875,29.725
07901,湖北,襄阳,保康,城关镇,西南官话,湖广片区,鄂北小片,111.13333333333333,31.725
07906,湖北,黄冈,黄州,赤壁街道办事处,江淮官话,黄孝片,鄂东小片,114.94999999999999,30.53333333333333
07913,湖北,咸宁市,通山县,通羊镇,赣语区,大通片,通山话,114.6,29.51
07920,湖北,荆门,钟祥,郢中镇,西南官话,湖广片,鄂中小片,112.57651,31.176156
07918,湖北,襄阳,宜城,南营街道办事处,西南官话,湖广片,鄂北小片,112.30845,31.73596
07245,湖北,襄阳市,襄城区,昭明街道,无,无,无,112.15,32.016666666666666
07169,湖北,黄冈市,蕲春县,漕河镇,无,无,无,115.56666666666666,30.325000000000003
07168,湖北,十堰,房县,城关镇,无,无,无,110.64166666666667,32.041666666666664
07241,湖北,黄石市,黄石港区,（无）,无,无,无,115.07,30.23
07242,湖北,荆州,荆州,西城,无,无,无,112.10833333333333,30.375
07239,湖北,武汉,蔡甸,蔡甸街道,无,无,无,113.95,30.46666666666667
07249,湖北,十堰市,郧阳区,城关镇,无,无,无,110.69166666666666,32.84166666666667
07243,湖北,黄冈市,武穴市,武穴办事处,无,无,无,115.59166666666667,29.858333333333334
07247,湖北,武汉,新洲,邾城街,无,无,无,114.7620846820534,30.803887901859422
07248,湖北,宜昌市（城区）,西陵区,云集,无,无,无,111.313705562742,30.7408281681936
07246,湖北,孝感市,孝南区,广场街街道办事处,无,无,无,114.00833333333333,30.96666666666667
07244,湖北,咸宁,咸安,浮山,无,无,无,114.40833333333333,29.84166666666667
07240,湖北,十堰市,丹江口,丹赵路办事处,无,无,无,111.24727,32.55287
01J63,广西,崇左市,江州区,太平,粤方言,钦廉片,系属未明,107.32499999999999,22.483333333333334
01J64,广西,贺州市,富川瑶族自治县,新华乡,湘粤桂土话,桂北平话,桂北小片,111.4372011794,24.8148112917
01J66,广西,贵港,桂平,江口,闽方言,系属不明,系属不明,110.025,23.333333333333336
01J65,广西,桂林,灌阳,观音阁乡,平话和土话,桂北片,系属不明,110.92395462,25.30568925
01J68,广西,百色,平果,新安镇,平话和土话区,桂南片,系属不明,107.59005538,23.324859284
01J70,广西,百色市,田东县,平马街,平话和土话,桂南片,小片未明,107.15833333333333,23.766666666666666
01J73,广西,贺州市,钟山,两安,平话土话,桂北片,系属不明,111.30958574,24.5316731
01J69,广西,桂林,全州,庙头镇,平话,桂北平话,全州土话,111.2125244,26.21359268
01J71,广西,桂林,兴安,高尚镇,平话和土话,桂北片,系属不明,110.58333333333334,25.6
01J67,广西,崇左市,宁明县,亭亮乡,客家话,广西,宁明,107.1941129868,22.27901371
01J72,广西,河池市,宜州区,德胜镇,平话和土话,平话,桂南平话,108.38,24.29
01G21,广西,梧州市,蒙山县,蒙山镇,无,无,无,110.54166666666666,24.133333333333333
01G18,广西,贵港,港北区,贵城镇,无,无,无,109.57,23.11
01G19,广西,贺州市,（无）,贺州市八步区桂岭镇,无,无,无,111.8445892803,24.6978129697
01G30,广西,桂林,阳朔县城,（无）,无,无,无,110.503475031712,24.7845191914
01G25,广西,桂林市,全州县,全州镇,无,无,无,111.05,25.933333333333334
01G23,广西,南宁,江南区,（无）,无,无,无,108.33,22.84
01G22,广西,南宁,南宁,无,无,无,无,108.22,22.48
01G14,广西,玉林,博白,博白镇,无,无,无,109.95833333333334,22.049999999999997
01G15,广西,玉林市,博白,博白镇,无,无,无,109.95833333333334,22.049999999999997
01G13,广西,南宁市,宾阳县,宾州镇,无,无,无,108.89166666666667,23.174999999999997
01G20,广西,柳州市,柳江县（2016年12月底“柳江县”改成“柳江区”。由于此调查的时间为2014年和2016年8月，故仍使用调查时的行政名称。）,拉堡镇,无,无,无,109.32847222222222,24.195833333333333
01G27,广西,梧州市,万秀区,城中办街道,无,无,无,110.98333333333333,23.458333333333336
01G28,广西,南宁市,武鸣区,城厢镇,无,无,无,108.27643,23.15987
01G31,广西,玉林,玉州区,玉城,无,无,无,110.15097222222221,22.677500000000002
01G29,广西,桂林,临桂区,五通镇,无,无,无,110.04166666666666,25.258333333333333
01G32,广西,梧州,岑溪,岑城镇,无,无,无,111.04166666666666,22.916666666666664
01G17,广西,桂林,桂林市区,无,无,无,无,110.54166666666666,25.316666666666666
01G26,广西,柳州市,融水县,融水镇和平街,无,无,无,108.95,25.208333333333336
01G24,广西,钦州,钦南区,攀桂街道,无,无,无,108.66666666666667,22.025
01G16,广西,防城港,东兴市,景秀路,无,无,无,108.06666666666666,21.625
01E12,广西,河池市,金城江区,（无）,西南官话,桂柳片,桂北小片,107.88333333333333,24.641666666666666
01E03,广西,防城港市,防城区,（无）,粤方言,钦廉片,系属不明,108.360448,21.7754113
01E16,广西,柳州市,鹿寨,鹿寨,西南官话,桂柳片,系属不明,109.762441,24.493881
01803,广西,崇左市,龙州县,龙州镇,粤语,邕浔片,龙州小片,106.875,22.433333333333334
01E08,广西,桂林市,（无）,雁山区雁山镇,平话和土话,桂北片,系属不明,110.34166666666667,25.175
01E11,广西,南宁市,横县,莲塘镇,平话,桂南平话,系属不明,109.161997,22.699822
01E21,广西,来宾,武宣,武宣,西南官话,桂柳片,桂北小片,109.60833333333333,23.625
01E24,广西,桂林,永福,永福镇,西南官话,桂柳片,系属未明,109.92625,25.120416666666667
01E07,广西,桂林市,灌阳县,灌阳镇,西南官话,永全片,灌阳话,111.159418,25.49512
01E14,广西,钦州,灵山,灵城,粤语,钦廉片,系属未明,109.15833333333333,22.241666666666667
01E02,广西,梧州,苍梧,石桥,粤方言区,勾漏片,苍梧白话,111.555844,23.859601
01E13,广西,桂林市,荔浦县,荔城镇,西南官话,桂柳片,桂北小片,110.39166666666667,24.53333333333333
01E22,广西,百色市,西林县,八达镇,西南官话,桂柳片,桂北小片,105.04166666666666,24.375
01E23,广西,来宾市,象州县,象州镇,西南官话,桂柳片,桂北小片,109.75833333333333,24.016666666666666
01E20,广西,南宁市,上林县,澄泰乡,客家,不详,不详,108.6771091,23.4325264
01E04,广西,河池,凤山,凤城镇,西南官话,桂柳片,桂北小片,107.0484198,24.553217
01E18,广西,崇左市,凭祥市,凭祥镇,粤语,邕浔片,系属不明,106.83333333333334,22.108333333333334
01E01,广西,玉林,北流,陵城街道,粤语,勾漏片,系属不明,110.44999999999999,22.525
01E10,广西,北海,合浦,廉州镇,粤语,钦廉片,系属不明,109.30833333333334,21.683333333333334
01E19,广西,玉林,容县,容州镇,粤语区,勾漏片,系属不明,110.56666666666666,22.78333333333333
01E05,广西,贺州市,富川瑶族自治县,富阳镇,西南官话,桂柳片,桂北小片,111.27041666666666,24.883333333333333
01E06,广西,桂林市,恭城县,恭城镇,西南官话区,桂柳片,桂北小片,110.88333333333333,24.950000000000003
01E17,广西,贵港,平南,平南,粤方言,勾漏片,平南白话,110.426048,23.551602
01E09,广西,贵港,桂平,西山,粤方言,邕浔片,系属不明,110.025,23.333333333333336
01C83,广西,北海市,海城区,中街,粤方言,钦廉片,系属不明,109.122627,21.47271
01A99,广西,贺州,昭平,昭平镇,粤语,勾漏粤语,昭平本地话,110.94166666666666,24.025
01A96,广西,柳州市,（无）,（无）,西南官话,桂柳片,桂北小片,109.4224,24.32905
01A97,广西,桂林市,平乐县,平乐镇,西南官话,桂柳片,系属不明,110.8,24.575
01A98,广西,河池,宜州区,庆远镇,官话西南次方言,桂柳片,系属不明,108.55,24.433333333333334
01148,广西,玉林,陆川,温泉镇,无,无,无,110.4,21.96666666666667
01147,广西,南宁,隆安,城厢镇,无,无,无,107.725,23.1
01149,广西,南宁市,马山县,周鹿镇,无,无,无,108.145678,23.703719
01013,广西,防城港市,港口区,渔洲社区,无,无,无,108.367021,21.648628
01167,广西,桂林,资源县,资源镇,无,无,无,110.67161,26.027682
01162,广西,贺州市,八步区（原贺县，今八步、平桂两区）,桂岭镇,无,无,无,111.163163,24.430197
01029,广西,桂林,阳朔县城,无,无,无,无,110.5017,24.7797
01166,广西,桂林,资源县,资源镇,无,无,无,110.54166666666666,26.058333333333334
01144,广西,百色市,隆林各族自治县,新州镇,无,无,无,105.351589,24.798587
01160,广西,贺州,八步区（原贺县，今八步、平桂两区）,莲塘镇,无,无,无,111.565604,24.398215
01146,广西,贵港,港南区,无,无,无,无,109.59,23.11
01161,广西,贺州,八步区（原贺县，今八步、平桂两区）,铺门镇,无,无,无,111.556262,24.416774
01155,广西,柳州,融安,长安镇,无,无,无,109.5,25.166666666666664
01004,广西,百色市,田东县,平马街,无,无,无,107.15833333333333,23.766666666666666
01006,广西,百色市,田阳县,那满镇,无,无,无,106.75,23.8
01005,广西,百色,田林县,浪平乡,无,无,无,105.85,24.325
01007,广西,百色,右江区,无,无,无,无,106.525,23.925
01142,广西,百色市,乐业县,同乐镇,无,无,无,106.55,24.78
01143,广西,百色,凌云,泗城镇,无,无,无,106.567535,24.356413
01030,广西,玉林,玉州区,玉城,无,无,无,110.15097222222221,22.677500000000002
01028,广西,南宁市,武鸣县,城厢镇,无,无,无,108.27643,23.15987
01018,广西,桂林,灵川县,三街镇,无,无,无,110.44999999999999,25.433333333333334
01026,广西,梧州,藤县,藤州镇,无,无,无,110.77041666666666,23.54777777777778
01159,广西,桂林市,灌阳县,（无）,无,无,无,111.02902777777777,25.46763888888889
01019,广西,钦州市,灵山县,檀墟,无,无,无,109.15833333333333,22.241666666666667
01024,广西,钦州市,浦北县,小江,无,无,无,109.563851,22.278225
01015,广西,南宁市,横县,无,无,无,无,109.20833333333333,22.816666666666666
01020,广西,梧州市,蒙山县,蒙山镇,无,无,无,110.54166666666666,24.133333333333333
01164,广西,梧州,万秀区,无,无,无,无,111.336788,23.479515
01154,广西,柳州市,柳江县,里雍镇,无,无,无,109.587567,24.204629
01153,广西,柳州市,柳江县,拉堡镇,无,无,无,109.335933,24.265522
01027,广西,梧州,万秀区,无,无,无,无,110.98333333333333,23.458333333333336
01008,广西,南宁,宾阳,宾州镇,无,无,无,108.80908,23.2198
01012,广西,崇左市,扶绥县,新宁镇,无,无,无,107.57499999999999,22.566666666666666
01145,广西,玉林市,博白,博白镇,无,无,无,109.95833333333334,22.049999999999997
01010,广西,崇左市,江州区,江州镇,无,无,无,107.44944444444445,22.123888888888885
01021,广西,南宁,南宁,公园街道办事处,无,无,无,108.22,22.48
01009,广西,玉林,博白,博白镇,无,无,无,109.95833333333334,22.049999999999997
01152,广西,来宾市,兴宾区,高安乡,无,无,无,109.16666666666666,23.666666666666664
01163,广西,桂林市,全州县,全州镇,无,无,无,111.05,25.933333333333334
01151,广西,玉林,兴业,石南镇,无,无,无,109.52,22.45
01016,广西,桂林市,临桂县,两江镇,无,无,无,110.17486111111111,25.299722222222222
01017,广西,桂林,临桂县,五通镇,无,无,无,110.04166666666666,25.258333333333333
01022,广西,南宁,江南区,无,无,无,无,108.33,22.84
01165,广西,桂林市,兴安县,兴安镇,无,无,无,110.58333333333334,25.608333333333334
01157,广西,柳州市,三江侗族自治县县,古宜镇,无,无,无,109.33333333333334,25.700000000000003
06K07,山东,烟台,长岛,南长山镇,胶辽官话,登连片,蓬龙小片,120.74,37.93
06K06,山东,菏泽市,曹县,磐石街道办事处,官话,中原官话,兖菏片,115.50833333333334,34.8
06K09,山东,聊城,东昌府区,（无）,冀鲁官话,石济片,聊泰小片,115.66666666666666,36.483333333333334
06K11,山东,临沂,莒南,莒南,冀鲁官话,沧惠片,莒照小片,118.82499999999999,35.19166666666666
06K10,山东,枣庄市,薛城区,临城街道,中原官话区,兖菏片,系属不明,117.31430555555556,34.78513888888889
06K08,山东,潍坊,高密,密水街道,胶辽官话,青莱片,胶莲小片,119.72416666666666,36.41722222222222
06F98,山东,济宁,梁山,梁山,中原官话区,兖菏片,梁山,116.102620295779,35.80806388661
06F90,山东,济南,市区,（无）,官话方言,冀鲁官话,石济片,116.95833333333334,36.775
06F89,山东,烟台,海阳,方圆街道,胶辽官话,登连片,烟威小片,121.15833333333333,36.71666666666667
06F96,山东,潍坊,潍城,城关街道,冀鲁官话,沧惠片,阳寿小片,119.045345988,36.7191317331
06F91,山东,青岛,莱西,水集街道,胶辽官话,登连片,烟威小片,120.43333333333334,36.858333333333334
06F97,山东,临沂,郯城,郯城,北方官话,中原官话,兖菏片,118.3,34.65
06F87,山东,淄博市,高青县,田镇街,冀鲁官话,沧惠片,阳寿小片,117.80833333333334,37.19166666666667
06F93,山东,潍坊,临朐,城关街道,胶辽官话区,青莱片,青临小片,118.525,36.34166666666667
06F92,山东,德州,乐陵,市中街道办,官话大区冀鲁官话区,沧惠片,黄乐小片,117.23840643173,37.7359245
06F88,山东,聊城,冠县,清泉街道办事处,冀鲁官话,石济片,聊泰小片,115.525,36.53333333333333
06F95,山东,日照市,东港区,日照街道办事处,冀鲁官话区,沧惠片,莒照小片,119.35833333333333,35.333333333333336
06F94,山东,烟台,栖霞,翠屏街道,胶辽官话,登连片,烟威小片,120.9,37.30833333333334
06572,山东,临沂市,沂水县,沂城,官话方言区,胶辽官话,青莱片,118.64,35.78
06561,山东,莱芜,莱城区,口镇,官话,冀鲁官话,石济片,117.64166666666667,36.291666666666664
06570,山东,德州,武城,老城镇,官话大区冀鲁官话区,石济片,聊泰小片,116.06666666666666,37.21666666666667
06574,山东,淄博,张店,马尚,冀鲁官话,石济片,聊泰小片,118.1,36.8
06575,山东,潍坊,诸城市,密州街道,胶辽官话区,青莱片,胶莲小片,119.36875,36.028888888888886
06560,山东,济宁,金乡,文庙,中原官话区,兖菏片,金乡,116.30833333333334,35.266666666666666
06569,山东,泰安,泰山区,岱庙办事处、财源办事处、泰前办事处,冀鲁官话,石济片,聊泰小片,117.13333333333333,36.208333333333336
06573,山东,淄博市,沂源县,悦庄镇,冀鲁官话,石济片,聊泰小片,118.20833333333334,36.15
06564,山东,菏泽市,牡丹区,东城街道,中原官话,兖菏片,（本片不分小片）,115.466576,35.282358
06571,山东,聊城市,阳谷县,博济桥街道办事处,官话,中原官话,兖菏片,115.875,36.11666666666667
06562,山东,东营,利津,凤凰城街道,官话大区冀鲁官话区,沧惠片,章桓小片,118.281492,37.54796
06567,山东,济南,商河,许商,官话方言,冀鲁官话,石济片,117.2,37.31666666666666
06563,山东,聊城,临清,新华路，青年路，先锋路,官话方言,冀鲁官话,石济片,115.74166666666667,36.78333333333333
06568,山东,潍坊市,寿光市,圣城街道,冀鲁官话,沧惠片,阳寿小片,118.85,37.0
06566,山东,威海,荣成,崖头街道,胶辽官话,登连片,烟威小片,122.55833333333334,37.31666666666666
06565,山东,青岛,平度,东阁,胶辽官话,青莱片,青岛小片,119.92263888888888,36.758472222222224
06255,山东,青岛,市南区,（无）,无,无,无,120.422373,36.071148
06259,山东,滨州,阳信,金阳街道,无,无,无,117.55833333333334,37.575
06258,山东,烟台,芝罘区,（无）,无,无,无,121.34166666666667,37.516666666666666
06256,山东,济宁,曲阜,鲁城,无,无,无,117.03333333333333,35.650000000000006
06252,山东,济南,济阳,济阳街道办事处,无,无,无,117.15833333333333,36.96666666666667
06251,山东,德州市,德城区,（无）,无,无,无,116.31666666666666,37.44166666666667
06257,山东,泰安市,新泰市,青云街道办事处,无,无,无,117.771287,35.926332
06250,山东,淄博,博山区,（无）,无,无,无,118.20833333333334,36.391666666666666
06254,山东,德州,平原,龙门办事处,无,无,无,116.26,37.09
06253,山东,临沂市,兰山区,（无）,无,无,无,118.0,35.0
06123,山东,青岛,崂山区,沙子口街道,无,无,无,120.47,36.1
06124,山东,泰安,肥城,老城街道办事处,无,无,无,116.725,36.1
06125,山东,烟台,蓬莱市,南王镇,无,无,无,120.80833333333334,37.608333333333334
30N07,台湾,（无）,宜兰,（无）,闽语区,闽南片,泉漳小片,121.46,24.44
30F99,台湾,台北,新北,板桥,闽语区,闽南话,混合片,121.52330677,25.0622444
30C90,台湾,（无）,苗栗,（无）,无,无,无,120.809092122642,24.57583809752
30F81,台湾,（无）,彰化县,鹿港镇,闽方言,闽南方言,闽南话（鹿港腔）,120.53456995888,24.11017943
30F80,台湾,（无）,新竹县,芎林乡,客家话,粤台片,嘉应小片/海陆腔,121.04078307969,24.82743084508
08K16,浙江,台州,黄岩,（无）,吴语,台州片,系属不明,121.06666666666666,28.6
08K18,浙江,金华市,磐安县,安文街道,吴语,金衢片,小片未明,120.53333333333333,29.066666666666666
08K21,浙江,温州市,泰顺县,仕阳镇,闽语区,闽南方言片,浙东南小片,119.93402777777777,27.548611111111114
08K15,浙江,温州市,洞头区,北岙街道,闽方言,闽南片,浙南小片,121.13097222222223,27.854027777777777
08K28,浙江,宁波,镇海,招宝山街道,吴语,太湖,甬江,121.72251899,29.954884963
08K26,浙江,宁波,象山,丹西街道,吴语,太湖片,甬江小片,121.92958333333334,29.258333333333333
08K29,浙江,衢州,衢江,杜泽,吴语,金衢片,小片不明,118.675,28.866666666666667
08K22,浙江,温州,泰顺,罗阳镇,吴语区,上丽片,丽水小片,119.93402777777777,27.55138888888889
08K20,浙江,杭州,淳安,姜家镇,徽语,严州片,系属不明,118.83333333333333,29.608333333333334
08K12,浙江,温州,苍南,灵溪镇,闽方言,闽南片,浙南小片,120.3949043808,27.501617633
08K17,浙江,嘉兴市,嘉善县,罗星街道,吴语区,太湖片,苏沪嘉小片,120.88430555555556,30.89
08K24,浙江,湖州,德清,武康镇,吴语,太湖,苕溪小片,120.04166666666666,31.066666666666666
08K19,浙江,台州市,三门县,海游街道,吴语区,台州片,临三小片,121.56666666666666,29.016666666666666
08K25,浙江,台州市,仙居县,安洲街道,吴语,台州片,系属不明,120.6,28.725
08K14,浙江,嘉兴市,桐乡市,崇福镇,吴语,太湖片,苏沪嘉小片,120.448230602,30.53479024847
08K13,浙江,杭州市,临安区,昌化镇,吴语区,太湖片,临绍小片,119.2244,30.1685
08K30,浙江,杭州市,临安区,於潜镇,吴语,太湖片,临绍小片,119.39166666666667,30.183333333333334
08K23,浙江,金华市,婺城区,汤溪镇,吴语区,金衢片,小片未明,119.53333333333333,28.991666666666667
08K27,浙江,杭州市,富阳区,新登镇,吴语区,太湖片,临绍小片,119.73355393,30.007163462
08F67,浙江,衢州,开化,芹阳办事处,吴语,上丽片,上山小片,118.31666666666666,29.2
08F62,浙江,湖州,德清,乾元镇,吴语,太湖,苕溪小片,120.0911514588,30.55462642
08F72,浙江,温州,文成,大峃镇,吴语,瓯江片,系属不明,120.00833333333333,27.775
08F71,浙江,嘉兴,桐乡,梧桐街道,吴语,太湖片,苏嘉湖小片,120.46666666666667,30.625
08F77,浙江,丽水市,景宁县,（无）,吴语,处衢片,处州小片,119.575,27.916666666666664
08F66,浙江,湖州,吴兴区,月河街道,吴语,太湖片,苕溪小片,120.19160466,30.862955454
08F76,浙江,台州,玉环,玉城街道,吴语,台州,台州,121.32597222222222,28.174444444444447
08F79,浙江,丽水,缙云,五云街道,吴语,金衢片,系属不明,120.14166666666667,28.683333333333334
08F60,浙江,温州,苍南,灵溪镇,吴语,瓯江片,系属不明,120.382361693,27.47978133
08F73,浙江,杭州,萧山,蜀山街道,吴语,太湖片,临绍小片,120.39166666666667,30.108333333333334
08F68,浙江,丽水市,青田县,鹤城街道,吴语区,上丽片,丽水小片,120.10833333333333,28.208333333333336
08F75,浙江,金华,义乌,稠城街道,吴语,金衢片,系属不明,120.05,29.291666666666668
08F63,浙江,杭州,桐庐,分水镇,吴方言,太湖片,临绍小片,119.452949929,29.932922
08F64,浙江,宁波,奉化,锦屏街道,吴方言,太湖片,甬江小片,121.39529949,29.668260603
08F59,浙江,湖州,安吉,孝丰镇,吴语,太湖片,苕溪小片,119.520727181,30.61067789
08F74,浙江,金华市,武义县,柳城,吴语,处衢片,处州小片,119.70833333333334,28.78333333333333
08F65,浙江,杭州,富阳区,富春,吴语,太湖片,临绍小片,119.86666666666667,29.966458333333335
08F70,浙江,杭州市,建德市,寿昌镇,徽语严州片,系属不明,系属不明,119.31666666666666,29.483333333333334
08F78,浙江,舟山,嵊泗,菜园镇,吴方言,太湖,甬江小片,122.45833333333334,30.733333333333334
08F61,浙江,衢州,常山,天马街道,吴语区,上丽片,上山小片,118.51678818,28.90654029
08F69,浙江,绍兴,上虞,百官街道,吴语,太湖片,临绍小片,120.52,30.01
08968,浙江,金华,武义,县城壶山镇,吴语区,婺州片,系属不明,119.65833333333333,28.78333333333333
08969,浙江,温州,永嘉,东城街道,吴语,瓯江片,系属不明,120.65,28.28333333333333
08966,浙江,衢州,龙游,龙洲街道,吴方言,金衢片,系属不明,119.18333333333334,29.008333333333333
0895A,浙江,杭州市,淳安县,千岛湖镇,徽语,严州片,系属不明,119.33333333333333,29.608333333333334
08965,浙江,丽水,龙泉,龙渊街道,吴方言,上丽片,丽水小片,119.05833333333334,28.016666666666666
08960,浙江,嘉兴,海宁,海洲街道,吴语,太湖片,苏沪嘉小片,120.58333333333333,30.416666666666664
08964,浙江,杭州市,临安区,锦城街道,吴语,太湖片,临绍小片,119.35833333333332,30.15833333333333
08961,浙江,杭州市,西湖区,留下街道,闽语区,闽南片,浙南小片,120.13,30.27
08967,浙江,嘉兴,平湖,当湖街道,吴语,太湖片,苏嘉湖小片,121.10833333333333,30.725
08963,浙江,金华,兰溪,兰江镇,吴语区,婺州片,金兰小片,119.56111111111112,29.240277777777777
08970,浙江,丽水市,云和县,（无）,吴语,处衢片,处州小片,119.54166666666666,28.016666666666666
08962,浙江,杭州,建德,梅城镇,系属不明,系属不明,系属不明,119.51,29.58
08533,浙江,丽水,遂昌,妙高镇,无,无,无,119.09166666666667,28.516666666666666
08956,浙江,杭州市,桐庐县,桐君街道,吴方言区,太湖片,临绍小片,119.56666666666666,29.833333333333332
08954,浙江,丽水市,松阳县,西屏街道,吴语区,处衢片,龙衢小片,119.43333333333334,28.416666666666668
08950,浙江,宁波,慈溪,古塘街道,吴方言,太湖片,临绍小片,121.36666666666667,30.21666666666667
08957,浙江,绍兴市,新昌县,南明街道,吴语,太湖片,临绍小片,120.95,29.383333333333333
08958,浙江,金华,永康,城区东城街道,吴语区,婺州片,系属不明,120.10833333333333,28.925
08959,浙江,舟山,岱山县,高亭镇,吴方言,太湖,明州,122.200568,30.268774
08952,浙江,宁波,宁海,跃龙街道,吴方言,太湖片,甬江小片,121.25,29.17
08955,浙江,台州,椒江,海门街道,吴语,台州,系属不明,121.44527777777776,28.6775
08953,浙江,温州,平阳,昆阳镇,吴方言区,瓯江片,系属不明,120.5350715,27.6816323
08951,浙江,台州,临海,古城街道,吴语,台州,系属不明,121.25,28.866666666666667
08559,浙江,金华市,东阳市,吴宁镇,无,无,无,120.40833333333333,29.241666666666667
08531,浙江,湖州市,长兴县,雉城镇,无,无,无,119.82499999999999,30.95
08532,浙江,绍兴,诸暨,暨阳,无,无,无,120.20833333333334,29.666666666666668
08524,浙江,丽水市,莲都区,白云街道,无,无,无,119.83333333333334,28.416666666666668
08527,浙江,温州,瑞安,玉海街道,无,无,无,120.70833333333334,27.833333333333336
08521,浙江,嘉兴,海盐,武原镇,无,无,无,120.875,30.40833333333333
08520,浙江,宁波,鄞州区,福明街道,无,无,无,121.55,29.87
08525,浙江,金华市,浦江县,浦阳镇,无,无,无,119.90833333333333,29.516666666666666
08522,浙江,衢州市,柯城区,（无）,无,无,无,118.88333333333333,28.908333333333335
08519,浙江,舟山,定海,昌国街道,无,无,无,121.94166666666666,30.083333333333336
08529,浙江,台州,天台,赤城街道,无,无,无,120.97638888888889,29.14736111111111
08526,浙江,丽水,庆元,松源街道,无,无,无,119.16666666666666,27.633333333333333
08523,浙江,温州,乐清,乐成街道,无,无,无,120.972309093647,28.1168604165025
08530,浙江,杭州市,余杭区,良渚街道,无,无,无,120.054128,30.386248
08528,浙江,绍兴市,嵊州市,剡湖街道,无,无,无,120.839008,29.601023
08204,浙江,金华市,婺城区,（无）,无,无,无,119.65,29.08
08205,浙江,丽水,景宁,鹤溪镇,无,无,无,119.63,27.97
08209,浙江,台州,温岭,太平街道,无,无,无,121.42104597878073,28.4005538171066
08206,浙江,舟山市,普陀区,沈家门街道,无,无,无,122.268416,29.875173
08208,浙江,绍兴,越城区,蕺山街道,无,无,无,120.61832665179439,30.01579293995235
08210,浙江,温州,鹿城,南汇街道,无,无,无,120.577548,28.055911
08203,浙江,衢州,江山市,（无）,无,无,无,118.639281,28.671253
08211,浙江,宁波,余姚,阳明街道,无,无,无,121.16,30.04
08200,浙江,湖州市,安吉县,递铺镇,无,无,无,119.58315792626792,30.626370494334115
08202,浙江,杭州市,建德市,梅城镇,无,无,无,119.31666666666666,29.483333333333334
08201,浙江,嘉兴市,南湖区,建设街道,无,无,无,120.84453542647287,30.71635792123517
08207,浙江,杭州,上城,（无）,无,无,无,120.18012613888587,30.2323576392334
